"id_pd","nombre_pd","direccion","nombre_institucional","id_provincia","id_departamento","id_localidad","id_municipio","provincia","departamento","localidad","municipio","mail_institucional","latitud","longitud","horarios","link_facebook","estado"
"40","Berisso","33 (Barrio Obrero)","Centro Integral Comunitario","AR-B","1208","323","BUE014","Buenos Aires","Berisso","Berisso","Berisso","berisso@puntodigital.gob.ar","-34.881902","-57.85778","Lunes 09:00 a 14:00 , Martes 09:00 a 14:00 , Miércoles 09:00 a 14:00 , Jueves 09:00 a 14:00 , Viernes 09:00 a 14:00 ","https://www.facebook.com/nac.berisso/?notif_t=page_name_change&notif_id=1496838879569334","Activo"
"41","Cañuelas","San Vicente","Centro de Estudios Universitarios Jóvenes de Malvinas","AR-B","1213","431","BUE018","Buenos Aires","Cañuelas","Cañuelas","Cañuelas","canuelas@puntodigital.gob.ar","-35.0523736","-58.7566804","Lunes 09:00 a 19:00 , Martes 09:00 a 19:00 , Miércoles 09:00 a 19:00 , Jueves 09:00 a 19:00 , Viernes 09:00 a 19:00 ","https://www.facebook.com/Punto-Digital-Cañuelas-814989875248868","Activo"
"42","Carmen de Patagones","Calle Ramón Ocampo","SUM del Barrio Villa Rita","AR-B","1286","1649","BUE091","Buenos Aires","Patagones","Carmen de Patagones","Patagones","cdepatagones@puntodigital.gob.ar","-40.785293","-62.993631","Lunes 07:00 a 17:30 , Martes 07:00 a 17:30 , Miércoles 07:00 a 17:30 , Jueves 07:00 a 17:30 , Viernes 07:00 a 17:30 ","","Activo"
"43","Morón Sur","Baradero 1340","UGC 6","AR-B","1281","1497","BUE086","Buenos Aires","Moron","Moron","Morón","moronsur@puntodigital.gob.ar","-34.689553","-58.636381","Lunes 08:00 a 16:00 , Martes 08:00 a 16:00 , Miércoles 08:00 a 16:00 , Jueves 08:00 a 16:00 , Viernes 08:00 a 16:00 , Sábado 08:00 a 16:00 ","https://www.facebook.com/PuntoDigitalMoronSur/?fref=ts","Activo"
"44","Chivilcoy","Miguel Calderon 1271","Centro Integral Comunitario","AR-B","1221","697","BUE026","Buenos Aires","Chivilcoy","Chivilcoy","Chivilcoy","chivilcoy@puntodigital.gob.ar","-34.916846","-60.001681","Lunes 10:00 a 16:00 , Martes 10:00 a 16:00 , Miércoles 10:00 a 16:00 , Jueves 10:00 a 16:00 , Viernes 10:00 a 16:00 ","","Activo"
"45","Colonia Santa María","Avenida 11 de mayo 1263","Ex escuela media N°2 Nicolás Levalle","AR-B","1226","602","BUE032","Buenos Aires","Coronel Suarez","Coronel Suarez","Coronel Suárez","coronelsuarez@puntodigital.gob.ar","-37.558786","-61.876575","Lunes 09:00 a 17:00 , Martes 09:00 a 17:00 , Jueves 09:00 a 17:00 , Miércoles 08:00 a 18:00 , Viernes 08:00 a 18:00 ","https://www.facebook.com/PDSantaMariaCoronelSuarez","Activo"
"46","Coronel Suarez CTC","Rivadavia 155","Edificio municipal","AR-B","1226","602","BUE032","Buenos Aires","Coronel Suarez","Coronel Suarez","Coronel Suárez","coronelsuarez2@puntodigital.gob.ar","-37.458378","-61.931273","Lunes 08:00 a 19:00 , Martes 08:00 a 19:00 , Miércoles 08:00 a 19:00 , Jueves 08:00 a 19:00 , Viernes 08:00 a 19:00 ","https://www.facebook.com/naccoronelsuarez.ctc","Activo"
"47","Dolores","Aristóbulo del Valle 302","Centro de Acceso a la Justicia","AR-B","1228","737","BUE034","Buenos Aires","Dolores","Dolores","Dolores","cajdolores@puntodigital.gob.ar","-36.312982","-57.678878","Jueves 09:00 a 15:00 , Viernes 09:00 a 15:00 , Martes 10:00 a 16:00 , Lunes 10:00 a 16:00 ","https://www.facebook.com/PuntoDigitalDolores/","Activo"
"48","Gral. Lamadrid","Roque Saenz Peña","Centro comunitario barrial","AR-B","1242","896","BUE048","Buenos Aires","General Lamadrid","General la Madrid","General la Madrid","lamadrid@puntodigital.gob.ar","-37.249677","-61.262192","Lunes 07:00 a 13:00 - 14:00 a 15:30 , Martes 07:00 a 13:00 - 15:00 a 20:00 , Miércoles 07:00 a 13:00 - 16:00 a 20:00 , Jueves 07:00 a 13:00 - 14:00 a 20:00 , Viernes 07:00 a 13:00 - 18:00 a 19:30 ","","Activo"
"49","Gonzalez Catán","Juan Manuel Rosas 17798","Edificio de la Región Descentralizada Sur II","AR-B","1259","1151","BUE065","Buenos Aires","La Matanza","Gonzalez Catan","La Matanza","gonzalezcatan@puntodigital.gob.ar","-34.793422","-58.632121","Lunes 08:00 a 18:00 , Martes 08:00 a 18:00 , Miércoles 08:00 a 18:00 , Jueves 08:00 a 18:00 , Viernes 08:00 a 18:00 ","","Activo"
"50","Gral. Las Heras","Rivadavia 220","Edificio Municipal","AR-B","1243","910","BUE049","Buenos Aires","General las Heras","General las Heras","General las Heras","lasheras@puntodigital.gob.ar","-34.931214","-58.944117","Lunes 09:00 a 21:00 , Martes 09:00 a 21:00 , Miércoles 09:00 a 21:00 , Jueves 09:00 a 21:00 , Viernes 09:00 a 21:00 ","https://www.facebook.com/NacLasHeras/","Activo"
"51","Gral. Rodriguez","Sarmiento 518","Museo Histórico Bernardo Yrigoyen","AR-B","1248","995","BUE054","Buenos Aires","General Rodriguez","General Rodriguez","General Rodríguez","generalrodriguez@puntodigital.gob.ar","-34.605147","-58.955793","Lunes 07:00 a 11:00 - 08:00 a 17:00 , Martes 07:00 a 11:00 - 08:00 a 17:00 , Miércoles 07:00 a 11:00 - 08:00 a 17:00 , Jueves 07:00 a 11:00 - 08:00 a 17:00 , Viernes 07:00 a 11:00 - 08:00 a 17:00 ","https://www.facebook.com/profile.php?id=100015355507336","Activo"
"52","Villa Palito","Peribebuy y Figueroa Alcorta","CIC Almafuerte","AR-B","1259","1158","BUE065","Buenos Aires","La Matanza","San Justo","La Matanza","almafuerte@puntodigital.gob.ar","-34.6966766","-58.5573374","Lunes 08:00 a 13:00 , Martes 08:00 a 13:00 , Miércoles 08:00 a 13:00 , Jueves 08:00 a 13:00 , Viernes 08:00 a 13:00 ","","Activo"
"53","Remedios de Escalada","Monseñor Hladnik 3856","Fundación PUPI","AR-B","1261","1168","BUE067","Buenos Aires","Lanus","Remedios Escalada de San Martin","Lanús","pupi@puntodigital.gob.ar","-34.715557","-58.417292","Lunes 09:00 a 19:30 , Martes 09:00 a 19:30 , Miércoles 09:00 a 19:30 , Jueves 09:00 a 19:30 , Viernes 09:00 a 19:30 ","https://www.facebook.com/Punto-Digital-Fundaci%C3%B3n-Pupi-1403503536582769/","Activo"
"54","Laprida","Julio A. Costa","Sede de Envión","AR-B","1262","1215","BUE068","Buenos Aires","Laprida","Laprida","Laprida","laprida@puntodigital.gob.ar","-37.53997","-60.79246","Lunes 08:00 a 12:00 - 14:00 a 17:00 , Martes 08:00 a 12:00 - 14:00 a 17:00 , Miércoles 08:00 a 12:00 - 14:00 a 17:00 , Jueves 08:00 a 12:00 - 14:00 a 17:00 , Viernes 08:00 a 12:00 - 14:00 a 17:00 ","","Activo"
"56","Villa Albertina","Bayona 70","Delegación Municipal","AR-B","1269","1350","BUE074","Buenos Aires","Lomas de Zamora","Lomas de Zamora","Lomas de Zamora","villaalbertina@puntodigital.gob.ar","-34.738918","-58.457142","","","Activo"
"57","Villa Centenario","Morazan 158","Sede de Envión Centenario","AR-B","1269","1350","BUE074","Buenos Aires","Lomas de Zamora","Lomas de Zamora","Lomas de Zamora","villacentenario@puntodigital.gob.ar","-34.729567","-58.427682","","","Próximamente"
"58","Luján","Rodolfo Romero 650","Casa de la Juventud","AR-B","1270","1366","BUE075","Buenos Aires","Lujan","Lujan","Luján","lujan@puntodigital.gob.ar","-34.567939","-59.132041","Lunes 08:00 a 21:00 , Martes 08:00 a 21:00 , Miércoles 08:00 a 21:00 , Jueves 08:00 a 21:00 , Viernes 08:00 a 21:00 ","","Activo"
"59","Mar del Plata","Coronel Vidal 2665","CIC","AR-B","1247","981","BUE053","Buenos Aires","General Pueyrredon","Mar del Plata","General Pueyrredón","mdqelmartillo@puntodigital.gob.ar","-38.030691","-57.597232","Lunes 08:00 a 19:00 , Martes 08:00 a 19:00 , Miércoles 08:00 a 19:00 , Jueves 08:00 a 19:00 , Viernes 08:00 a 19:00 ","","Activo"
"60","Marcos Paz CIC","Eva Duarte","Centro Integral Comunitario","AR-B","1275","1449","BUE080","Buenos Aires","Marcos Paz","Marcos Paz","Marcos Paz","marcospaz1@puntodigital.gob.ar","-34.760222","-58.81865","Lunes 07:00 a 13:00 , Martes 07:00 a 13:00 , Miércoles 07:00 a 13:00 , Jueves 07:00 a 13:00 , Viernes 07:00 a 13:00 , Sábado 07:00 a 13:00 ","https://www.facebook.com/PuntoDigitalMarcosPaz","Activo"
"61","Marcos Paz UMI","Colectora Juan Domingo Perón","Unidad Municipal Integrada","AR-B","1275","1449","BUE080","Buenos Aires","Marcos Paz","Marcos Paz","Marcos Paz","marcospaz2@puntodigital.gob.ar","-34.744365","-58.806153","Lunes 07:00 a 13:00 , Martes 07:00 a 13:00 , Miércoles 07:00 a 13:00 , Jueves 07:00 a 13:00 , Viernes 07:00 a 13:00 , Sábado 07:00 a 13:00 ","https://www.facebook.com/PuntoDigitalMarcosPaz","Activo"
"62","Miramar","Calle 110","CIC","AR-B","1236","814","BUE042","Buenos Aires","General Alvarado","Miramar","General Alvarado","miramar@puntodigital.gob.ar","-38.238821","-57.870738","Martes 09:00 a 20:00 , Miércoles 09:00 a 20:00 , Jueves 09:00 a 20:00 , Viernes 09:00 a 20:00 , Lunes 08:00 a 19:30 ","","Activo"
"63","Pigüé","Ciudad de Rodez","Edificio municipal","AR-B","1302","1930","BUE107","Buenos Aires","Saavedra","Pigue","Saavedra","pigue@puntodigital.gob.ar","-37.604683","-62.406994","Lunes 09:00 a 12:00 - 16:00 a 21:00 , Martes 09:00 a 12:00 - 16:00 a 21:00 , Miércoles 09:00 a 12:00 - 16:00 a 21:00 , Jueves 09:00 a 12:00 - 16:00 a 21:00 , Viernes 09:00 a 12:00 - 16:00 a 21:00 ","https://www.facebook.com/Punto-Digital-Pigüé-507868515986947","Activo"
"64","Quilmes","Calle 892","Centro Integral Comunitario","AR-B","1296","1806","BUE101","Buenos Aires","Quilmes","Quilmes","Quilmes","lapazquilmes@puntodigital.gob.ar","-34.748193","-58.32957","Lunes 08:00 a 19:00 , Martes 08:00 a 19:00 , Miércoles 08:00 a 19:00 , Jueves 08:00 a 19:00 , Viernes 08:00 a 19:00 ","https://www.facebook.com/PDQuilmes/?hc_ref=SEARCH&fref=nf","Activo"
"65","Tres de Febrero","-","Tres de Febrero","AR-B","1323","2271","BUE128","Buenos Aires","Tres de Febrero","Loma Hermosa","Tres de Febrero","caseros@puntodigital.gob.ar","-34.609958","-58.564999","","","Próximamente"
"66","Urdampilleta","Avenida Rivadavia","Estación Terminal de Ómnibus de la Localidad de Urdampilleta","AR-B","1209","364","BUE015","Buenos Aires","Bolivar","Urdampilleta","Bolívar","urdampilletabolivar@puntodigital.gob.ar","-36.429901","-61.422737","Lunes 08:30 a 12:30 - 16:30 a 20:30 , Martes 08:30 a 12:30 - 16:30 a 20:30 , Miércoles 08:30 a 12:30 - 16:30 a 20:30 , Jueves 08:30 a 12:30 - 16:30 a 20:30 , Viernes 08:30 a 12:30 - 16:30 a 20:30 ","https://www.facebook.com/Punto-Digital-Urdampilleta-1356195624448375/","Activo"
"67","Villa Gesell","Paseo 115","Edificio municipal","AR-B","1327","2335","BUE132","Buenos Aires","Villa Gesell","Villa Gesell","Villa Gesell","villagesell@puntodigital.gob.ar","-37.260973","-56.993298","Lunes 09:00 a 20:00 , Martes 09:00 a 20:00 , Miércoles 09:00 a 20:00 , Jueves 09:00 a 20:00 , Viernes 09:00 a 20:00 , Sábado 09:00 a 20:00 ","https://www.facebook.com/Punto-Digital-Villa-Gesell-NAC-1592779114326043/?fref=ts","Activo"
"68","San Antonio de Areco","Alsina 66","Museo","AR-B","1307","2008","BUE112","Buenos Aires","San Antonio de Areco","San Antonio de Areco","San Antonio de Areco","areco@puntodigital.gob.ar","-34.242248","-59.475228","","","Activo"
"69","Gral. Madariaga","Calle 4","CIC","AR-B","1241","887","BUE047","Buenos Aires","General Juan Madariaga","General Juan Madariaga","General Juan Madariaga","madariaga@puntodigital.gob.ar","-36.997729","-57.126238","Lunes 08:30 a 22:00 , Martes 08:30 a 22:00 , Miércoles 08:30 a 22:00 , Jueves 08:30 a 22:00 , Viernes 08:30 a 22:00 ","https://www.facebook.com/nacmadariaga/?fref=ts","Activo"
"70","Azul","San Martin 612","Edificio municipal","AR-B","1202","204","BUE007","Buenos Aires","Azul","Azul","Azul","azul@puntodigital.gob.ar","-36.782008","-59.867986","","https://www.facebook.com/Punto-Digital-Azul-1839556029394531/","Activo"
"71","Tandil","Nigro 1620","Centro de Capacitación Cultura y Deportes-Sede Villa Aguirre UNICEN - Bs.As.","AR-B","1316","2139","BUE121","Buenos Aires","Tandil","Tandil","Tandil","tandil@puntodigital.gob.ar","-37.29975","-59.124413","Lunes 09:00 a 20:00 , Martes 09:00 a 20:00 , Miércoles 09:00 a 20:00 , Jueves 09:00 a 20:00 , Viernes 09:00 a 20:00 ","","Activo"
"72","Lobería","Albarellos","CIC","AR-B","1267","1323","BUE072","Buenos Aires","Loberia","Loberia","Lobería","loberia@puntodigital.gob.ar","-38.156633","-58.787584","Lunes 08:00 a 12:00 - 15:00 a 19:00 , Martes 08:00 a 12:00 - 15:00 a 19:00 , Miércoles 08:00 a 12:00 - 15:00 a 19:00 , Jueves 08:00 a 12:00 - 15:00 a 19:00 , Viernes 08:00 a 12:00 - 15:00 a 19:00 ","https://www.facebook.com/profile.php?id=100009654451136&fref=ts","Activo"
"73","San Fernando","Hipólito Yrigoyen 1642","Partido Justicialista de San Fernando","AR-B","1309","2036","BUE114","Buenos Aires","San Fernando","San Fernando","San Fernando","sanfernando@puntodigital.gob.ar","-34.445288","-58.558394","Lunes 09:00 a 13:00 - 16:00 a 20:00 , Martes 09:00 a 13:00 - 16:00 a 20:00 , Miércoles 09:00 a 13:00 - 16:00 a 20:00 , Jueves 09:00 a 13:00 - 16:00 a 20:00 , Viernes 09:00 a 13:00 - 16:00 a 20:00 ","","Activo"
"74","Castelar","William Morris 3524","UGC 5","AR-B","1281","1497","BUE086","Buenos Aires","Moron","Moron","Morón","castelar@puntodigital.gob.ar","-34.683557","-58.660551","Lunes 09:00 a 13:00 - 16:00 a 20:00 , Martes 09:00 a 13:00 - 16:00 a 20:00 , Miércoles 09:00 a 13:00 - 16:00 a 20:00 , Jueves 09:00 a 13:00 - 16:00 a 20:00 , Viernes 09:00 a 13:00 - 16:00 a 20:00 ","https://www.facebook.com/PUNTODIGITAL.Castelar.sur.Moron/?fref=ts","Activo"
"75","Lima","Avenida 111 943","Unidad Integral de Educación Técnico Profesional de Lima ","AR-B","1329","2389","BUE134","Buenos Aires","Zarate","Zarate","Zárate","centrozarate@puntodigital.gob.ar","-34.034891","-59.192548","Lunes 08:00 a 20:00 , Martes 08:00 a 20:00 , Miércoles 08:00 a 20:00 , Jueves 08:00 a 20:00 , Viernes 08:00 a 20:00 ","","Activo"
"78","Lima Centro Cultural","Calle 7","Centro Cultural Lima","AR-B","1329","2388","BUE134","Buenos Aires","Zarate","Lima","Zárate","lima2@puntodigital.gob.ar","-34.046926","-59.193701","Lunes 08:00 a 18:00 , Martes 08:00 a 18:00 , Miércoles 08:00 a 18:00 , Jueves 08:00 a 18:00 , Viernes 08:00 a 18:00 , Domingo 14:00 a 18:00 ","https://www.facebook.com/Punto-Digital-Lima-Centro-Cultural-450314608663968/","Activo"
"79","San Andrés de Giles","Lucas Scully 917","Casa del Bicentenario San Andrés de Giles","AR-B","1306","1996","BUE111","Buenos Aires","San Andres de Giles","San Andres de Giles","San Andrés de Giles","sanandresdegiles@puntodigital.gob.ar","-34.440335","-59.441159","Lunes 09:00 a 21:00 , Martes 09:00 a 21:00 , Miércoles 09:00 a 21:00 , Jueves 09:00 a 21:00 , Viernes 09:00 a 21:00 ","","Activo"
"80","Ezeiza","Avellaneda 51","Teatro Municipal","AR-B","1233","777","BUE039","Buenos Aires","Ezeiza","Jose Maria Ezeiza","Ezeiza","ezeiza@puntodigital.gob.ar","-34.440335","-59.441159","","","Activo"
"81","La Plata","Diagonal 80 340","Instituto Malvinas (Facultad de Ingeniería-UNLP)","AR-B","1260","1189","BUE066","Buenos Aires","La Plata","La Plata","La Plata","laplata@puntodigital.gob.ar","-34.899972","-57.949375","Lunes 08:30 a 19:30 , Martes 08:30 a 19:30 , Miércoles 08:30 a 19:30 , Jueves 08:30 a 19:30 , Viernes 08:30 a 19:30 ","","Activo"
"82","Mar del Plata - Inareps","Ruta 88 KM 1,5","Instituto Nacional de Rehabilitación Psicofísica del Sur  Dr. Juan Otimio Tesone ","AR-B","1247","981","BUE053","Buenos Aires","General Pueyrredon","Mar del Plata","General Pueyrredón","inareps@puntodigital.gob.ar","-34.907862","-57.97273","Lunes 08:00 a 18:00 , Martes 08:00 a 18:00 , Miércoles 08:00 a 18:00 , Jueves 08:00 a 18:00 , Viernes 08:00 a 18:00 ","","Activo"
"83","Punta Indio","Calle 26","Casa del Niño","AR-B","1295","1799","BUE100","Buenos Aires","Punta Indio","Punta Indio","Punta Indio","puntaindio@puntodigital.gob.ar","-35.400266","-57.327604","","","Activo"
"84","Palomar","General Juan Pedernera 280","UGC 3","AR-B","1281","1495","BUE086","Buenos Aires","Moron","El Palomar","Morón","palomar@puntodigital.gob.ar","-34.606423","-58.596689","Miércoles 09:00 a 17:00 , Jueves 09:00 a 17:00 , Viernes 09:00 a 17:00 , Lunes 08:30 a 16:00 , Martes 08:30 a 16:00 ","","Activo"
"85","Balcarce","Avenida Eva Perón 3949","Centro Cultural Salamone","AR-B","1204","257","BUE009","Buenos Aires","Balcarce","Balcarce","Balcarce","balcarce@puntodigital.gob.ar","-37.832936","-58.272814","","https://www.facebook.com/PDBalcarce","Activo"
"86","Tres Lomas","Saavedra","CIC","AR-B","1324","2288","BUE129","Buenos Aires","Tres Lomas","Tres Lomas","Tres Lomas","treslomas@puntodigital.gob.ar","-36.455583","-62.853385","Lunes 08:00 a 22:00 , Martes 08:00 a 22:00 , Miércoles 08:00 a 22:00 , Jueves 08:00 a 22:00 , Viernes 08:00 a 22:00 ","https://www.facebook.com/nactreslomas/","Activo"
"87","Tornquist","Avenida E. Tornquist 355","Biblioteca popular Tornquist","AR-B","1320","2201","BUE125","Buenos Aires","Tornquist","Tornquist","Tornquist","tornquist@puntodigital.gob.ar","-38.10158","-62.225471","","","Activo"
"88","Pehuajó","Dean Funes 194","Edificio municipal","AR-B","1287","1679","BUE092","Buenos Aires","Pehuajo","Pehuajo","Pehuajó","pehuajo@puntodigital.gob.ar","-35.800834","-61.897053","","","Activo"
"91","Valeria del Mar","Sebastian El Cano 2698","CIC","AR-B","1292","1762","BUE097","Buenos Aires","Pinamar","Valeria del Mar","Pinamar","valeriadelmar@puntodigital.gob.ar","-37.136657","-56.909694","","","Activo"
"92","La Plata JUS","Calle 13 129","Punto DIgital","AR-B","1260","1189","BUE066","Buenos Aires","La Plata","La Plata","La Plata","laplatajus@puntodigital.gob.ar","-34.907862","-57.97273","","https://www.facebook.com/Punto-Digital-La-Plata-Justicia-917175938360684/?notif_t=page_name_change&notif_id=1497375953174205","Activo"
"94","La Plata CIE","Calle 122 s/n","Punto DIgital","AR-B","1260","1189","BUE066","Buenos Aires","La Plata","La Plata","La Plata","","-34.897344","-57.940385","","","Activo"
"96","Floresta","Ramón Falcón 4250","Espacio para la memoria y la promoción de los Derechos Humanos ","AR-C","1711","25","CAB000","Ciudad Autónoma de Buenos Aires","Comuna 10","Floresta","Ciudad Autónoma de Buenos Aires","exolimpo@puntodigital.gob.ar","-34.636555","-58.486858","Lunes 09:00 a 17:00 , Martes 09:00 a 17:00 , Miércoles 09:00 a 17:00 , Jueves 09:00 a 17:00 , Viernes 09:00 a 17:00 ","https://www.facebook.com/nac.exolimpo/","Activo"
"97","Villa 21","Avenida Iriarte 3500","Casa Central de la Cultura Popular","AR-C","1705","10","CAB000","Ciudad Autónoma de Buenos Aires","Comuna 4","Barracas","Ciudad Autónoma de Buenos Aires","barracas@puntodigital.gob.ar","-34.651658","-58.397334","","","Activo"
"98","Hospital Garrahan","Combate de los Pozos 1881","Hospital Garrahan","AR-C","1705","13","CAB000","Ciudad Autónoma de Buenos Aires","Comuna 4","Parque Patricios","Ciudad Autónoma de Buenos Aires","garrahan@puntodigital.gob.ar","-34.630696","-58.392664","Lunes 08:00 a 18:00 , Martes 08:00 a 18:00 , Miércoles 08:00 a 18:00 , Jueves 08:00 a 18:00 , Viernes 08:00 a 18:00 ","","Activo"
"99","Ex ESMA","Avenida del Libertador 8151","Espacio para la memoria y la promoción de los Derechos Humanos ","AR-C","1714","41","CAB000","Ciudad Autónoma de Buenos Aires","Comuna 13","Nuñez","Ciudad Autónoma de Buenos Aires","casadelamilitancia@puntodigital.gob.ar","-34.540283","-58.46409","Lunes 10:00 a 17:00 , Martes 10:00 a 17:00 , Miércoles 10:00 a 17:00 , Jueves 10:00 a 17:00 , Viernes 10:00 a 17:00 ","https://www.facebook.com/pdcasadelamilitancia/","Activo"
"101","Constitución","Pedro Echagüe 1265","CTEP","AR-C","1702","1","CAB000","Ciudad Autónoma de Buenos Aires","Comuna 1","Constitucion","Ciudad Autónoma de Buenos Aires","constitucioncaba@puntodigital.gob.ar","-34.629774","-58.383584","Lunes 08:00 a 20:00 , Martes 08:00 a 20:00 , Miércoles 08:00 a 20:00 , Jueves 08:00 a 20:00 , Viernes 08:00 a 20:00 ","","Activo"
"102","Jabad Acción Social","Tucumán 3238","Fundación Jabad","AR-C","1704","8","CAB000","Ciudad Autónoma de Buenos Aires","Comuna 3","Balvanera","Ciudad Autónoma de Buenos Aires","jas@puntodigital.gob.ar","-34.600497","-58.411422","Lunes 09:00 a 15:00 , Martes 09:00 a 15:00 , Miércoles 09:00 a 15:00 , Jueves 09:00 a 15:00 , Viernes 09:00 a 15:00 ","","Temporalmente cerrado"
"103","Acción Católica Argentina","Avenida de Mayo 621","Sede Acción Católica Argentina","AR-C","1702","2","CAB000","Ciudad Autónoma de Buenos Aires","Comuna 1","Monserrat","Ciudad Autónoma de Buenos Aires","accioncatolica@puntodigital.gob.ar","-34.608613","-58.375255","Lunes 12:00 a 18:00 , Martes 12:00 a 18:00 , Miércoles 12:00 a 18:00 , Jueves 12:00 a 18:00 , Viernes 12:00 a 18:00 ","https://www.facebook.com/PuntoDigitalACA","Activo"
"106","Villa Devoto","Avenida Chivilcoy 3301","Casa Nacional del Futuro","AR-C","1712","32","CAB000","Ciudad Autónoma de Buenos Aires","Comuna 11","Villa Devoto","Ciudad Autónoma de Buenos Aires","devoto@puntodigital.gob.ar","-34.6036531","-58.5086876","Lunes 09:00 a 20:00 , Martes 09:00 a 20:00 , Miércoles 09:00 a 20:00 , Jueves 09:00 a 20:00 , Viernes 09:00 a 20:00 ","","Activo"
"107","Esquel","Pasaje Tecka ","Sede Vecinal del Barrio Don Bosco","AR-U","1371","5765","CHU018","Chubut","Futaleufu","Esquel","Esquel","esquel@puntodigital.gob.ar","-42.907988","-71.326257","Lunes 07:00 a 20:00 , Martes 07:00 a 20:00 , Miércoles 07:00 a 20:00 , Jueves 07:00 a 20:00 , Viernes 07:00 a 20:00 ","https://www.facebook.com/nac.esquel","Activo"
"108","Los Altares","Belencito ","Centro Comunitario","AR-U","1379","5805","CHU030","Chubut","Paso de Indios","Los Altares","Los Altares","losaltares@puntodigital.gob.ar","-43.88537","-68.412509","Lunes 08:30 a 14:30 , Martes 08:30 a 14:30 , Miércoles 08:30 a 14:30 , Jueves 08:30 a 14:30 , Viernes 08:30 a 14:30 ","https://www.facebook.com/PDLosAltares/","Activo"
"109","Rawson Chubut","Ernesto Echave 607","Municipalidad","AR-U","1381","5812","CHU036","Chubut","Rawson","Rawson","Rawson","rawsonchubut@puntodigital.gob.ar","-43.2934317","-65.0828048","Lunes 14:00 a 22:00 - 08:00 a 13:00 , Martes 14:00 a 22:00 - 08:00 a 13:00 , Miércoles 14:00 a 22:00 - 08:00 a 13:00 , Jueves 14:00 a 22:00 - 08:00 a 13:00 , Viernes 14:00 a 22:00 - 08:00 a 13:00 ","https://www.facebook.com/Punto-Digital-Rawson-Chubut-1429954877217632","Activo"
"110","Río Mayo","Hipólito Irigoyen 552","Biblioteca popular","AR-U","1367","5825","CHU037","Chubut","Rio Senguer","Rio Mayo","Río Mayo","riomayo@puntodigital.gob.ar","-45.692086","-70.262375","Lunes 09:00 a 13:00 - 15:00 a 18:00 , Martes 09:00 a 13:00 - 15:00 a 18:00 , Miércoles 09:00 a 13:00 - 15:00 a 18:00 , Jueves 09:00 a 13:00 - 15:00 a 18:00 , Viernes 09:00 a 13:00 - 15:00 a 18:00 ","https://www.facebook.com/nacmicrocinenacriomayo/?fref=ts","Activo"
"111","El Hoyo","Los guindos","Casa de la Cultura ","AR-U","1372","5715","CHU015","Chubut","Cushamen","El Hoyo","El Hoyo","elhoyo@puntodigital.gob.ar","-42.063402","-71.519397","Lunes 08:00 a 12:00 - 17:00 a 21:00 , Martes 08:00 a 12:00 - 17:00 a 21:00 , Miércoles 08:00 a 12:00 - 17:00 a 21:00 , Jueves 08:00 a 12:00 - 17:00 a 21:00 , Viernes 08:00 a 12:00 - 17:00 a 21:00 ","https://www.facebook.com/Punto-Digital-El-Hoyo-1444151862563286/?fref=ts","Activo"
"113","Trevelin","Rio Futaleufu 1897","CIM centro integral de la mujer","AR-U","1371","5768","CHU043","Chubut","Futaleufu","Trevelin","Trevelin","trevelin@puntodigital.gob.ar","-43.101628","-71.469948","Lunes 07:00 a 13:00 - 14:00 a 20:00 , Martes 07:00 a 13:00 - 14:00 a 20:00 , Miércoles 07:00 a 13:00 - 14:00 a 20:00 , Jueves 07:00 a 13:00 - 14:00 a 20:00 , Viernes 07:00 a 13:00 - 14:00 a 20:00 ","https://www.facebook.com/Punto-Digital-Trevelin-ex-NAC-154191594924843","Activo"
"115","Gaiman","Chubut 504","Municipalidad de Gaiman","AR-U","1374","5775","CHU020","Chubut","Gaiman","Gaiman","Gaiman","gaiman@puntodigital.gob.ar","-43.299725","-65.502537","Lunes 08:00 a 13:00 - 15:30 a 18:30 , Martes 08:00 a 13:00 - 15:30 a 18:30 , Miércoles 08:00 a 13:00 - 15:30 a 18:30 , Jueves 08:00 a 13:00 - 15:30 a 18:30 , Viernes 08:00 a 13:00 - 15:30 a 18:30 ","https://www.facebook.com/puntodigitalgaiman/?fref=ts","Activo"
"116","Gan Gan","San Martin","Salon Comunal","AR-U","1375","5843","CHU021","Chubut","Telsen","Gan Gan","Gan Gan","gangan@puntodigital.gob.ar","-42.52189","-68.285673","","","Temporalmente cerrado"
"117","Castelli","Avenida San Martin 650","Municipalidad","AR-H","1358","5181","CHA029","Chaco","General Güemes","Guemes","Juan José Castelli","castelli@puntodigital.gob.ar","-25.9462471","-60.6172981","","https://www.facebook.com/PDCastelli/?notif_t=page_name_change&notif_id=1496848955317305","Activo"
"118","Corzuela","Avenida Belgrano 50","Municipalidad","AR-H","1356","5097","CHA016","Chaco","General Belgrano","Corzuela","Corzuela","corzuela@puntodigital.gob.ar","-26.950716","-60.9691048","Lunes 10:00 a 12:00 - 17:00 a 19:00 , Martes 10:00 a 12:00 - 17:00 a 19:00 , Miércoles 10:00 a 12:00 - 17:00 a 19:00 , Jueves 10:00 a 12:00 - 17:00 a 19:00 , Viernes 10:00 a 12:00 - 17:00 a 19:00 ","","Activo"
"119","Gral. San Martín","Lavalle 384","CIC","AR-H","1352","5426","CHA025","Chaco","Libertador General San Martin","General Jose de San Martin","General San Martín","gralsanmartin@puntodigital.gob.ar","-26.5376091","-59.3533592","Lunes 07:00 a 12:00 - 14:00 a 17:00 , Martes 07:00 a 12:00 - 14:00 a 17:00 , Miércoles 07:00 a 12:00 - 14:00 a 17:00 , Jueves 07:00 a 12:00 - 14:00 a 17:00 , Viernes 07:00 a 12:00 - 14:00 a 17:00 ","","Activo"
"120","Puerto Tirol","9 de Julio 250","Municipalidad","AR-H","1354","5358","CHA057","Chaco","Libertad","Puerto Tirol","Puerto Tirol","puertotirol@puntodigital.gob.ar","-27.3739223","-59.0900726","Lunes 08:00 a 12:00 - 15:00 a 20:00 , Martes 08:00 a 12:00 - 15:00 a 20:00 , Miércoles 08:00 a 12:00 - 15:00 a 20:00 , Jueves 08:00 a 12:00 - 15:00 a 20:00 , Viernes 08:00 a 12:00 - 15:00 a 20:00 ","https://www.facebook.com/Punto-Digital-Puerto-Tirol-150409588821670","Activo"
"121","Quitilipi","25 de Mayo 545","Municipalidad","AR-H","1721","5583","CHA059","Chaco","Quitilipi","Quitilipi","Quitilipi","quitilipi@puntodigital.gob.ar","-26.8729286","-60.2173233","Lunes 08:00 a 12:00 - 16:00 a 20:00 , Martes 08:00 a 12:00 - 16:00 a 20:00 , Miércoles 08:00 a 12:00 - 16:00 a 20:00 , Jueves 08:00 a 12:00 - 16:00 a 20:00 , Viernes 08:00 a 12:00 - 16:00 a 20:00 ","https://www.facebook.com/puntodigital.gob.ar/","Activo"
"122","Villa Angela","Pasteur","Municipalidad","AR-H","1357","5494","CHA066","Chaco","Mayor Jorge Luis Fontana","Villa Angela","Villa Ángela","villaangela@puntodigital.gob.ar","-27.57741","-60.7106246","Lunes 08:00 a 12:00 - 16:00 a 21:00 , Miércoles 08:00 a 12:00 - 16:00 a 21:00 , Martes 08:00 a 12:00 - 16:00 a 21:00 , Jueves 08:00 a 12:00 - 16:00 a 21:00 , Viernes 08:00 a 12:00 - 16:00 a 21:00 ","","Activo"
"124","Colonia Elisa","Guemes 605","CIC","AR-H","1348","5645","CHA011","Chaco","Sargento Cabral","Colonia Elisa","Colonia Elisa","coloniaelisa@puntodigital.gob.ar","-26.931184","-59.518819","","https://www.facebook.com/Punto-Digital-CIC-Colonia-Elisa-282298782198021/?hc_ref=SEARCH","Activo"
"125","Gral. Vedia","Lote 8 L. 26º 54`12``","Fundación Valdocco","AR-H","1360","4996","CHA026","Chaco","Bermejo","General Vedia","General Vedia","generalvedia@puntodigital.gob.ar","-26.9038086","-58.6314659","","","Activo"
"126","Laguna Blanca II","Américo Panzardi y Malvinas Argentinas","-","AR-H","1354","5357","CHA036","Chaco","Libertad","Laguna Blanca","Laguna Blanca","lagunablanca2@puntodigital.gob.ar","-27.2551632","-59.2321892","Lunes 08:00 a 18:00 , Martes 08:00 a 18:00 , Miércoles 08:00 a 18:00 , Jueves 08:00 a 18:00 , Viernes 08:00 a 18:00 ","","Activo"
"127","Alto Alegre","Buenos Aires 501","SUM Municipal","AR-X","1384","4248","CBA012","Córdoba","Union","Alto Alegre","Alto Alegre","altoalegre@puntodigital.gob.ar","-32.345564","-62.884648","Lunes 08:00 a 12:00 - 16:00 a 20:00 , Martes 08:00 a 12:00 - 16:00 a 20:00 , Miércoles 08:00 a 12:00 - 16:00 a 20:00 , Jueves 08:00 a 12:00 - 16:00 a 20:00 , Viernes 08:00 a 12:00 - 16:00 a 20:00 ","","Activo"
"129","Colonia Bismarck","San Martin S/N","Edificio Municipal","AR-X","1384","4257","CBA081","Córdoba","Union","Colonia Bismarck","Colonia Bismarck","bismarck@puntodigital.gob.ar","-33.30144","-62.712632","","","Activo"
"130","Las Acequias","Elías Mayarano 248","CIC","AR-X","1382","3534","CBA195","Córdoba","Rio Cuarto","Las Acequias","Las Acequias","lasacequias@puntodigital.gob.ar","-33.28062","-63.975303","Lunes 08:00 a 20:00 , Martes 08:00 a 20:00 , Miércoles 08:00 a 20:00 , Jueves 08:00 a 20:00 , Viernes 08:00 a 20:00 ","https://www.facebook.com/Punto-Digital-Las-Acequias-1370383379714178/","Activo"
"131","Leones","Av. del Libertador 1552","Centro Cultural Municipal","AR-X","1386","3296","CBA218","Córdoba","Marcos Juarez","Leones","Leones","leones@puntodigital.gob.ar","-32.6611819","-62.3080744","Lunes 08:00 a 12:00 - 14:00 a 18:00 , Martes 08:00 a 12:00 - 14:00 a 18:00 , Miércoles 08:00 a 12:00 - 14:00 a 18:00 , Jueves 08:00 a 12:00 - 14:00 a 18:00 , Viernes 08:00 a 12:00 - 14:00 a 18:00 ","","Activo"
"132","Los Cisnes","Buenos Aires 158","SUM Municipal","AR-X","1385","3240","CBA221","Córdoba","Juarez Celman","Los Cisnes","Los Cisnes","loscisnes@puntodigital.gob.ar","-33.399748","-63.472012","","https://www.facebook.com/Punto-Digital-Los-Cisnes-1377528919156151/","Activo"
"133","Monte Maíz","San Martín 1550","Municipalidad","AR-X","1384","4263","CBA261","Córdoba","Union","Monte Maiz","Monte Maíz","montemaiz@puntodigital.gob.ar","-33.204866","-62.600703","","","Activo"
"134","Morrison","Leonardo Murialdo S/N","CIC","AR-X","1384","4264","CBA263","Córdoba","Union","Morrison","Morrison","morrison@puntodigital.gob.ar","-32.600377","-62.838042","","https://www.facebook.com/nac.morrison","Activo"
"135","Noetinger","Eva Perón S/N","Unidad Basica","AR-X","1384","4265","CBA266","Córdoba","Union","Noetinger","Noetinger","noetinger@puntodigital.gob.ar","-32.364253","-62.308166","Lunes 15:00 a 19:00 , Martes 15:00 a 19:00 , Miércoles 15:00 a 19:00 , Jueves 15:00 a 19:00 , Viernes 15:00 a 19:00 ","https://www.facebook.com/puntodigitalnoet/","Activo"
"137","Pueblo Italiano","Avenida Cordoba 90","Salón Comunitario de Cultura  “Oscar Cacho de la Mano”","AR-X","1384","4268","CBA292","Córdoba","Union","Pueblo Italiano","Pueblo Italiano","puebloitaliano@puntodigital.gob.ar","-33.880871","-62.839282","Lunes 08:00 a 12:00 ","https://www.facebook.com/PDPuebloItaliano/","Activo"
"138","Villa Ascasubi","Malvinas Argentinas 695","CIC","AR-X","1388","4117","CBA383","Córdoba","Tercero Arriba","Villa Ascasubi","Villa Ascasubi","ascasubi@puntodigital.gob.ar","-32.165581","-63.890101","","https://www.facebook.com/nac.villaascasubi/","Activo"
"139","Villa del Totoral","Leopoldo Lugones S/N","CIC","AR-X","1400","4157","CBA398","Córdoba","Totoral","Villa del Totoral","Villa del Totoral","villatotoral@puntodigital.gob.ar","-30.708434","-64.066365","Lunes 08:00 a 18:00 , Martes 08:00 a 18:00 , Miércoles 08:00 a 18:00 , Jueves 08:00 a 18:00 , Viernes 08:00 a 18:00 ","https://www.facebook.com/PuntoDigitalVillaDelTotoral","Activo"
"140","San Marcos Sierra","Moreno S/N","Centro Cultural Marcelo Pais","AR-X","1390","3082","CBA336","Córdoba","Cruz del Eje","San Marcos Sierra","San Marcos Sierras","marcossierra@puntodigital.gob.ar","-30.781335","-64.639482","Lunes 09:00 a 14:00 - 16:00 a 21:00 , Martes 09:00 a 14:00 - 16:00 a 21:00 , Miércoles 09:00 a 14:00 - 16:00 a 21:00 , Jueves 09:00 a 14:00 - 16:00 a 21:00 , Viernes 09:00 a 14:00 - 16:00 a 21:00 ","https://www.facebook.com/PDSanMarcosSierras/?ref=br_rs","Activo"
"141","Campo de la Ribera","Martín Cartechini S/N","Espacio para la memoria y la promoción de los Derechos Humanos ","AR-X","1406","2940","CBA100","Córdoba","Capital","Cordoba","Córdoba","campodelaribera@puntodigital.gob.ar","-31.408577","-64.132873","Lunes 09:00 a 16:00 , Martes 09:00 a 16:00 , Miércoles 09:00 a 16:00 , Jueves 09:00 a 16:00 , Viernes 09:00 a 16:00 ","","Activo"
"142","Cavanagh","Avenida Badenia S/N","Municipalidad","AR-X","1386","3285","CBA061","Córdoba","Marcos Juarez","Cavanagh","Cavanagh","cavanagh@puntodigital.gob.ar","-33.475868","-62.338703","","","Activo"
"143","Las Peñas","Boulevard San Martín Sin número","Punto DIgital","AR-X","1400","4151","CBA207","Córdoba","Totoral","Las Peñas","Las Peñas","laspenas@puntodigital.gob.ar","-30.563597","-63.999579","Lunes 09:00 a 13:00 - 15:00 a 19:00 , Martes 09:00 a 13:00 - 15:00 a 19:00 , Miércoles 09:00 a 13:00 - 15:00 a 19:00 , Jueves 09:00 a 13:00 - 15:00 a 19:00 , Viernes 09:00 a 13:00 - 15:00 a 19:00 ","","Activo"
"144","La Posta","San Martin S/N","CIC","AR-X","1394","3615","CBA185","Córdoba","Rio Primero","La Posta","La Posta","laposta@puntodigital.gob.ar","-30.564299","-63.516439","Lunes 09:00 a 13:00 - 15:00 a 19:00 , Martes 09:00 a 13:00 - 15:00 a 19:00 , Miércoles 09:00 a 13:00 - 15:00 a 19:00 , Jueves 09:00 a 13:00 - 15:00 a 19:00 , Viernes 09:00 a 13:00 - 15:00 a 19:00 ","","Activo"
"145","Alejandro Roca","Velez Sarfield S/N","Edificio Municipal","AR-X","1385","3230","CBA006","Córdoba","Juarez Celman","Alejandro Roca","Alejandro Roca","aroca@puntodigital.gob.ar","-33.352507","-63.717362","","https://www.facebook.com/PuntoDigitalalejandroroca/","Temporalmente cerrado"
"146","Pampayasta Sud","San Martin S/N","Casa Municipal de la Cultura “Armando Molina Rosa”","AR-X","1388","4113","CBA277","Córdoba","Tercero Arriba","Pampayasta Sur","Pampayasta Sud","pampayasta@puntodigital.gob.ar","-32.253234","-63.646266","Lunes 08:00 a 12:00 - 13:00 a 20:00 , Martes 08:00 a 12:00 - 13:00 a 20:00 , Miércoles 08:00 a 12:00 - 13:00 a 20:00 , Jueves 08:00 a 12:00 - 13:00 a 20:00 , Viernes 08:00 a 12:00 - 13:00 a 20:00 ","https://www.facebook.com/nacpampayasta","Activo"
"147","Idiázabal","Sarmiento S/N","Municipalidad","AR-X","1384","4259","CBA152","Córdoba","Union","Idiazabal","Idiazábal","idiazabal@puntodigital.gob.ar","-32.811851","-63.032995","Lunes 09:00 a 12:30 - 16:00 a 18:30 , Martes 09:00 a 12:30 - 16:00 a 18:30 , Miércoles 09:00 a 12:30 - 16:00 a 18:30 , Jueves 09:00 a 12:30 - 16:00 a 18:30 , Viernes 09:00 a 12:30 - 16:00 a 18:30 ","https://www.facebook.com/profile.php?id=100010070565598&fref=ts","Activo"
"148","San Antonio de Arredondo","Avenida. Cura Brochero 2305","Salon Municipal","AR-X","1396","3433","CBA320","Córdoba","Punilla","San Antonio de Arredondo","San Antonio de Arredondo","sanantoniodearredondo@puntodigital.gob.ar","-31.494538","-64.544796","","","Activo"
"149","La Perla","Ruta Nacional N°20 km12","Espacio para la memoria y la promoción de los Derechos Humanos ","AR-X","1389","4015","CBA241","Córdoba","Santa Maria","Malagueño","Malagueño","laperla@puntodigital.gob.ar","-31.446539","-64.380999","","https://www.facebook.com/Punto-Digital-La-Perla-1721998244716020/","Activo"
"150","Villa María","Gobernador Sabattini 40","Biblioteca Popular Municipal","AR-X","1393","3156","CBA411","Córdoba","General San Martin","Villa Maria","Villa María","villamaria@puntodigital.gob.ar","-32.412567","-63.246611","","https://www.facebook.com/PDVillaMaria/","Activo"
"151","Bella Vista","25 de Mayo S/N","CIC","AR-W","1409","4289","COR002","Corrientes","Bella Vista","Bella Vista","Bella Vista","bellavista@puntodigital.gob.ar","-28.516725","-59.05281","Lunes 07:30 a 12:30 - 13:00 a 18:00 , Martes 07:30 a 12:30 - 13:00 a 18:00 , Miércoles 07:30 a 12:30 - 13:00 a 18:00 , Jueves 07:30 a 12:30 - 13:00 a 18:00 , Viernes 07:30 a 12:30 - 13:00 a 18:00 ","","Activo"
"152","Corrientes","Turín S/N","CIC","AR-W","1419","4301","COR012","Corrientes","Capital","Corrientes","Corrientes","corrientes@puntodigital.gob.ar","-27.501361","-58.785341","Lunes 08:00 a 22:00 , Martes 08:00 a 22:00 , Miércoles 08:00 a 22:00 , Jueves 08:00 a 22:00 , Viernes 08:00 a 22:00 ","https://www.facebook.com/nac.corrientescapital/","Activo"
"153","Curuzú Cuatiá","Colón 2253","CIC","AR-W","1421","4373","COR014","Corrientes","Curuzu Cuatia","Curuzu Cuatia","Curuzú Cuatiá","curuzucuatia@puntodigital.gob.ar","-29.782662","-58.072647","Lunes 08:00 a 18:00 , Martes 08:00 a 18:00 , Miércoles 08:00 a 18:00 , Jueves 08:00 a 18:00 , Viernes 08:00 a 18:00 ","","Temporalmente cerrado"
"154","Monte Caseros","uan Domingo Perón S/N","Edificio Municipal","AR-W","1416","4690","COR038","Corrientes","Monte Caseros","Monte Caseros","Monte Caseros","montecaseros@puntodigital.gob.ar","-30.316047","-57.72998","Lunes 09:00 a 21:00 , Martes 09:00 a 21:00 , Miércoles 09:00 a 21:00 , Jueves 09:00 a 21:00 , Viernes 09:00 a 21:00 ","","Activo"
"155","Perugorría","Genaro Perugorria 98","Casa de la Cultura","AR-W","1421","4374","COR045","Corrientes","Curuzu Cuatia","Perugorria","Perugorría","perugorria@puntodigital.gob.ar","-29.340644","-58.609264","Lunes 08:00 a 12:30 - 16:00 a 20:30 , Martes 08:00 a 12:30 - 16:00 a 20:30 , Miércoles 08:00 a 12:30 - 16:00 a 20:30 , Jueves 08:00 a 12:30 - 16:00 a 20:30 , Viernes 08:00 a 12:30 - 16:00 a 20:30 ","https://www.facebook.com/Punto-Digital-Perugorria-126301884599729/","Temporalmente cerrado"
"156","Saladas","Avenida del Trabajo 4000","Comedor Ñande Mitai","AR-W","1431","4735","COR049","Corrientes","Saladas","Saladas","Saladas","saladas@puntodigital.gob.ar","-28.262632","-58.61805","Lunes 07:00 a 13:00 , Martes 07:00 a 13:00 , Miércoles 07:00 a 13:00 , Jueves 07:00 a 13:00 , Viernes 07:00 a 13:00 ","","Activo"
"157","Santo Tomé","Andres Guacurari S/N","CIC","AR-W","1425","4886","COR059","Corrientes","Santo Tome","Santo Tome","Santo Tomé","santotome@puntodigital.gob.ar","-28.559575","-56.048641","Lunes 08:00 a 12:00 - 16:00 a 20:00 , Martes 08:00 a 12:00 - 16:00 a 20:00 , Miércoles 08:00 a 12:00 - 16:00 a 20:00 , Jueves 08:00 a 12:00 - 16:00 a 20:00 , Viernes 08:00 a 12:00 - 16:00 a 20:00 ","https://www.facebook.com/nac.santotome/?ref=br_rs","Activo"
"158","Antofagasta de la Sierra","Rivadavia S/N","-","AR-K","1332","2472","CAT004","Catamarca","Antofagasta de la Sierra","Antofagasta de la Sierra","Antofagasta de la Sierra","antofagasta@puntodigital.gob.ar","-26.067757","-67.410656","","","Activo"
"159","Hualfín","17 de julio","-","AR-K","1333","2530","CAT005","Catamarca","Belen","Hualfin","Belén","ualfin@puntodigital.gob.ar","-27.2250593","-66.8338024","Martes 08:00 a 20:00 , Lunes 08:00 a 20:00 , Miércoles 08:00 a 20:00 , Viernes 08:00 a 20:00 , Jueves 08:00 a 20:00 , Sábado 09:00 a 17:00 , Domingo 09:00 a 17:00 ","","Activo"
"160","Los Ángeles","Frente a Plaza Los Ángeles","-","AR-K","1334","2567","CAT012","Catamarca","Capayan","Los Angeles","Huillapima","losangeles@puntodigital.gob.ar","-28.5078951","-65.9545322","Lunes 08:00 a 12:00 - 15:00 a 19:00 , Martes 08:00 a 19:00 , Miércoles 08:00 a 19:00 , Jueves 08:00 a 19:00 , Viernes 08:00 a 19:00 , Sábado 08:00 a 19:00 ","","Activo"
"161","Huillapima","Barrio Centro S/N","Polideportivo Municipal","AR-K","1334","2566","CAT012","Catamarca","Capayan","Huillapima","Huillapima","huillapima@puntodigital.gob.ar","-28.732156","-65.983028","Lunes 08:00 a 12:00 - 15:00 a 20:00 , Martes 08:00 a 12:00 - 15:00 a 20:00 , Miércoles 08:00 a 12:00 - 15:00 a 20:00 , Jueves 08:00 a 12:00 - 15:00 a 20:00 , Viernes 08:00 a 12:00 - 15:00 a 20:00 ","https://www.facebook.com/Punto-Digital-Huillapima-251287688353688/","Activo"
"162","Icaño","Av. Ifrain Castillo S/N","Salon Municipal de Ayamarca","AR-K","1339","2684","CAT013","Catamarca","La Paz","Icaño","Icaño","icano@puntodigital.gob.ar","-28.9177113","-65.333045","Lunes 08:00 a 13:00 - 14:00 a 18:00 , Martes 08:00 a 13:00 - 14:00 a 18:00 , Miércoles 08:00 a 13:00 - 14:00 a 18:00 , Jueves 08:00 a 13:00 - 14:00 a 18:00 , Viernes 08:00 a 13:00 - 14:00 a 18:00 ","","Activo"
"163","Catamarca CIS","Virgen del Valle Norte S/N altura 2050","-","AR-K","1343","2578","CAT026","Catamarca","Capital","San Fernando del Valle de Catamarca","San Fernando del Valle de Catamarca","catamarca@puntodigital.gob.ar","-28.4377883","-65.7889682","","https://www.facebook.com/Punto-Digital-CIS-Catamarca-123851644814741","Activo"
"164","Catamarca SEPAVE","Federico País 519","-","AR-K","1343","2578","CAT026","Catamarca","Capital","San Fernando del Valle de Catamarca","San Fernando del Valle de Catamarca","sepavecatamarca@puntodigital.gob.ar","-28.4247207","-65.7785969","Lunes 08:00 a 13:00 - 14:00 a 19:00 , Martes 08:00 a 13:00 - 14:00 a 19:00 , Miércoles 08:00 a 13:00 - 14:00 a 19:00 , Jueves 08:00 a 13:00 - 14:00 a 19:00 , Viernes 08:00 a 13:00 - 14:00 a 19:00 ","https://www.facebook.com/PuntoDigitalSepaveSalazar/","Activo"
"165","Santa María","Quintana ","Complejo de Comunicaciones ","AR-K","1344","2771","CAT028","Catamarca","Santa Maria","Santa Maria","Santa María","santamaria@puntodigital.gob.ar","-26.695686","-66.047637","","https://www.facebook.com/pg/PDSantaMariaCoronelSuarez/about/?ref=page_internal","Activo"
"166","Tinogasta","A. del Pino 700","-","AR-K","1337","2848","CAT032","Catamarca","Tinogasta","Tinogasta","Tinogasta","tinogasta@puntodigital.gob.ar","-28.0645034","-67.5702256","Lunes 07:00 a 13:00 - 15:00 a 21:00 , Martes 07:00 a 13:00 - 15:00 a 21:00 , Miércoles 07:00 a 13:00 - 15:00 a 21:00 , Jueves 07:00 a 13:00 - 15:00 a 21:00 , Viernes 07:00 a 13:00 - 15:00 a 21:00 ","","Activo"
"167","Pomán","Barrio San Nicolás S/N","-","AR-K","1341","2726","CAT019","Catamarca","Poman","Poman","Pomán","poman@puntodigital.gob.ar","-28.3748929","-66.2965019","Lunes 15:00 a 20:30 , Martes 15:00 a 20:30 , Miércoles 16:00 a 20:30 , Viernes 17:30 a 21:00 ","","Activo"
"168","Chajarí","Moreno S/N","CIC","AR-E","1440","5969","ERI009","Entre Ríos","Federacion","Chajari","Chajarí","chajari@puntodigital.gob.ar","-30.750699","-57.995593","Lunes 08:00 a 12:00 , Martes 08:00 a 12:00 , Miércoles 08:00 a 12:00 , Jueves 08:00 a 12:00 , Viernes 08:00 a 12:00 ","","Activo"
"169","Diamante","Alem S/N","CIC","AR-E","1434","5931","ERI016","Entre Ríos","Diamante","Diamante","Diamante","diamante@puntodigital.gob.ar","-32.074327","-60.638952","Lunes 09:00 a 12:00 - 14:00 a 21:00 , Martes 09:00 a 12:00 - 14:00 a 21:00 , Miércoles 09:00 a 12:00 - 14:00 a 21:00 , Jueves 09:00 a 12:00 - 14:00 a 21:00 , Viernes 09:00 a 12:00 - 14:00 a 21:00 ","https://www.facebook.com/puntodigitaldiamante/","Activo"
"170","San José de Feliciano","Belgrano S/N","Edificio Municipal","AR-E","1447","6027","ERI047","Entre Ríos","Feliciano","San Jose de Feliciano","San José de Feliciano","feliciano@puntodigital.gob.ar","-30.384911","-58.750784","Lunes 09:00 a 13:00 , Martes 09:00 a 13:00 , Miércoles 09:00 a 13:00 , Jueves 09:00 a 13:00 , Viernes 09:00 a 13:00 ","","Activo"
"172","Paraná","Enrique Carbó 194","Casa de la Cultura","AR-E","1439","6260","ERI039","Entre Ríos","Parana","Parana","Paraná","parana@puntodigital.gob.ar","-31.737784","-60.530289","Lunes 08:00 a 13:00 - 16:00 a 20:00 , Martes 08:00 a 13:00 - 16:00 a 20:00 , Miércoles 08:00 a 13:00 - 16:00 a 20:00 , Jueves 08:00 a 13:00 - 16:00 a 20:00 , Viernes 08:00 a 13:00 ","https://www.facebook.com/PuntoDigitalParana","Activo"
"173","Villaguay","Avenida Raúl Alfonsín 1111","Centro de Convenciones Municipal","AR-E","1449","6435","ERI067","Entre Ríos","Villaguay","Villaguay","Villaguay","villaguay@puntodigital.gob.ar","-31.867433","-59.027009","Lunes 07:00 a 13:00 - 16:00 a 20:30 , Martes 07:00 a 13:00 - 16:00 a 20:30 , Miércoles 07:00 a 13:00 - 16:00 a 20:30 , Jueves 07:00 a 13:00 - 16:00 a 20:30 , Viernes 07:00 a 13:00 - 16:00 a 20:30 ","https://www.facebook.com/Punto-Digital-Villaguay-1856112931323841/?hc_ref=PAGES_TIMELINE","Activo"
"174","El Pingo","Perón S/N","Ex Escuela N°120","AR-E","1439","6252","ERI900","Entre Ríos","Parana","El Pingo","El Pingo","elpingo@puntodigital.gob.ar","-31.582396","-59.891453","Lunes 09:00 a 12:00 - 15:00 a 21:00 , Martes 09:00 a 12:00 - 15:00 a 21:00 , Miércoles 09:00 a 12:00 - 15:00 a 21:00 , Jueves 09:00 a 12:00 - 15:00 a 21:00 , Viernes 09:00 a 12:00 - 15:00 a 21:00 , Sábado 15:00 a 18:00 , Domingo 15:00 a 18:00 ","https://www.facebook.com/nacelpingo/?fref=ts","Activo"
"175","Concepción del Uruguay","Presbitero Allais S/N","CIC","AR-E","1436","6352","ERI012","Entre Ríos","Uruguay","Concepcion del Uruguay","Concepción del Uruguay","cdeluruguay@puntodigital.gob.ar","-32.473088","-58.257676","Lunes 08:00 a 13:00 - 15:00 a 18:00 , Martes 08:00 a 13:00 - 15:00 a 18:00 , Miércoles 08:00 a 13:00 - 15:00 a 18:00 , Jueves 08:00 a 13:00 - 15:00 a 18:00 , Viernes 08:00 a 13:00 - 15:00 a 18:00 ","","Activo"
"176","La Paz","Hipólito  Yrigoyen S/N","CIC","AR-E","1437","6174","ERI031","Entre Ríos","La Paz","La Paz","La Paz","lapaz@puntodigital.gob.ar","-30.760920","-59.647678","Lunes 15:00 a 18:00 , Martes 08:00 a 12:00 , Miércoles 08:00 a 12:00 , Jueves 15:00 a 18:00 - 08:00 a 00:00 , Viernes 15:00 a 18:00 ","","Activo"
"177","Nogoyá","Marconi S/N","CIC","AR-E","1435","6201","ERI037","Entre Ríos","Nogoya","Nogoya","Nogoyá","nogoya@puntodigital.gob.ar","-32.3916415","-59.7997009","","https://www.facebook.com/Punto-Digital-Nogoy%C3%A1-1906246192926563/","Activo"
"178","Concordia","Moulins S/N","Casa del Bicentenario","AR-E","1442","5903","ERI013","Entre Ríos","Concordia","Concordia","Concordia","concordia@puntodigital.gob.ar","-31.3728519","-58.0494763","Lunes 07:00 a 20:00 , Martes 07:00 a 20:00 , Miércoles 07:00 a 20:00 , Jueves 07:00 a 20:00 , Viernes 07:00 a 20:00 , Sábado 09:30 a 17:00 , Domingo 16:00 a 19:00 ","","Activo"
"179","Casa del Estudiante","Avenida Antártida Argentina","Universidad de Formosa","AR-P","1452","6591","FOR008","Formosa","Formosa","Formosa","Formosa","formosa2@puntodigital.gob.ar","-26.189332","-58.194238","Lunes 07:00 a 13:00 - 15:00 a 21:00 , Martes 07:00 a 13:00 - 15:00 a 21:00 , Miércoles 07:00 a 13:00 - 15:00 a 21:00 , Jueves 07:00 a 13:00 - 15:00 a 21:00 , Viernes 07:00 a 13:00 - 15:00 a 21:00 ","","Activo"
"182","Herradura","Avenida Independencia","Casa de la solidaridad","AR-P","1455","6627","FOR014","Formosa","Laishi","Herradura","Herradura","herradura@puntodigital.gob.ar","-26.483561","-58.309808","","","Activo"
"184","Laguna Blanca I","Rivadavia S/N","Biblioteca Pública  Comandante Luis Jorge Fontana ","AR-P","1451","6920","FOR017","Formosa","Pilcomayo","Laguna Blanca","Laguna Blanca","lagunablanca@puntodigital.gob.ar","-25.133419","-58.244700","","","Activo"
"185","Laishi","San Martín","Municipalidad","AR-P","1455","6628","FOR023","Formosa","Laishi","San Francisco de Laishi","Misión San Francisco de Laishi","laishi@puntodigital.gob.ar","-26.244372","-58.630364","Lunes 08:00 a 12:00 - 16:00 a 20:00 , Martes 08:00 a 12:00 - 16:00 a 20:00 , Miércoles 08:00 a 12:00 - 16:00 a 20:00 , Jueves 08:00 a 12:00 - 16:00 a 20:00 , Viernes 08:00 a 12:00 - 16:00 a 20:00 ","","Activo"
"186","Palo Santo","Avenida 2 de Abril","Centro Cívico","AR-P","1454","7015","FOR025","Formosa","Pirane","Palo Santo","Palo Santo","palosanto@puntodigital.gob.ar","-25.564015","-59.33974","Lunes 07:00 a 13:00 - 16:00 a 19:00 , Martes 07:00 a 13:00 - 16:00 a 19:00 , Miércoles 07:00 a 13:00 - 16:00 a 19:00 , Jueves 07:00 a 13:00 - 16:00 a 19:00 , Viernes 07:00 a 13:00 - 16:00 a 19:00 ","","Activo"
"187","Perin","Avenida 25 de Mayo","Comisión de Fomento de Perín","AR-P","1453","6834","FOR033","Formosa","Patiño","Subteniente Perin","Subteniente Perín","perinformosa@puntodigital.gob.ar","-25.536364","-60.018565","","","Activo"
"188","Pirané","Sarmiento 625","Centro Cívico","AR-P","1454","7016","FOR026","Formosa","Pirane","Pirane","Pirané","pirane@puntodigital.gob.ar","-25.735544","-59.106623","Lunes 07:30 a 12:30 - 15:00 a 21:30 , Martes 07:30 a 21:30 - 15:00 a 21:30 , Miércoles 15:00 a 21:30 - 07:30 a 12:30 , Jueves 07:30 a 12:30 - 15:00 a 22:30 , Viernes 07:30 a 12:30 - 15:00 a 22:30 , Sábado 14:00 a 17:00 ","https://www.facebook.com/piranepuntodigital","Activo"
"189","Riacho He He","Avenida Libertador General San Martín","Centro de Capacitación Integral Municipal","AR-P","1451","6924","FOR029","Formosa","Pilcomayo","Riacho He-He","Riacho He-Hé","riachohehe@puntodigital.gob.ar","-25.370688","-58.290539","Lunes 07:00 a 12:00 , Martes 07:00 a 12:00 , Miércoles 07:00 a 12:00 , Jueves 07:00 a 12:00 , Viernes 08:00 a 18:00 , Sábado 08:00 a 18:00 ","","Activo"
"190","Tres Lagunas","Avenida Eulogio Gomes","Municipalidad","AR-P","1450","6879","FOR034","Formosa","Pilagas","Tres Lagunas","Tres Lagunas","treslagunas@puntodigital.gob.ar","-25.251453","-58.453278","","","Activo"
"191","Clorinda","Avenida San Martin 146","Facultad de Ciencias Económicas","AR-P","1451","6919","FOR002","Formosa","Pilcomayo","Clorinda","Clorinda","clorinda@puntodigital.gob.ar","-25.287491","-57.707174","Lunes 08:00 a 18:00 , Martes 08:00 a 18:00 , Miércoles 08:00 a 18:00 , Jueves 08:00 a 18:00 , Viernes 08:00 a 18:00 ","https://www.facebook.com/PDClorinda/","Activo"
"192","Abra Pampa","Sargento Paz 239","CIC Abra Pampa","AR-Y","1459","7107","JUJ002","Jujuy","Cochinoca","Abra Pampa","Abra Pampa","abrapampa@puntodigital.gob.ar","-22.724074","-65.692128","Lunes 07:00 a 13:00 - 14:00 a 17:00 , Martes 07:00 a 13:00 - 14:00 a 17:00 , Miércoles 07:00 a 13:00 - 14:00 a 17:00 , Jueves 07:00 a 13:00 - 14:00 a 17:00 , Viernes 07:00 a 13:00 - 14:00 a 17:00 , Sábado 07:00 a 13:00 - 14:00 a 17:00 , Domingo 07:00 a 13:00 - 14:00 a 17:00 ","","Activo"
"193","Calilegua","Belgrano ","CIC Calilegua","AR-Y","1463","7228","JUJ008","Jujuy","Ledesma","Calilegua","Calilegua","calilegua@puntodigital.gob.ar","-23.77039","-64.769234","","https://www.facebook.com/Punto-Digital-Calilegua-316272915476284/","Activo"
"194","El Carmen","Ruta Provincial 42, esquina Chile","CIC El Carmen","AR-Y","1460","7141","JUJ016","Jujuy","El Carmen","El Carmen","El Carmen","elcarmen@puntodigital.gob.ar","-24.385746","-65.272169","Lunes 08:00 a 13:00 - 14:00 a 19:00 , Martes 08:00 a 13:00 - 14:00 a 19:00 , Miércoles 08:00 a 13:00 - 14:00 a 19:00 , Jueves 08:00 a 13:00 - 14:00 a 19:00 , Viernes 08:00 a 13:00 - 14:00 a 19:00 , Sábado 08:00 a 13:00 - 14:00 a 19:00 , Domingo 08:00 a 13:00 - 14:00 a 19:00 ","https://www.facebook.com/leandronac.carmen","Activo"
"195","Huacalera","RN9, sobre calle s/n, manzana 14","CIC Huacalera","AR-Y","1469","7409","JUJ023","Jujuy","Tilcara","Huacalera","Huacalera","huacalera@puntodigital.gob.ar","-23.438522","-65.350564","","","Activo"
"196","Loma Blanca","Escuela Nº 366","Escuela Nº 366","AR-Y","1470","7268","JUJ030","Jujuy","Rinconada","Loma Blanca","Mina Pirquitas","lomablanca@puntodigital.gob.ar","-22.5","-66.5","","https://www.facebook.com/Punto-Digital-LOMA-Blanca-JUJUY-114156915855172/","Temporalmente cerrado"
"197","Palpalá","Av. Río de la Plata 383","Edificio Municipal","AR-Y","1471","7248","JUJ033","Jujuy","Palpala","Palpala","Palpalá","palpala@puntodigital.gob.ar","-24.257859","-65.21275","Lunes 07:00 a 13:00 - 15:00 a 21:00 , Martes 07:00 a 13:00 - 15:00 a 21:00 , Miércoles 07:00 a 13:00 - 15:00 a 21:00 , Jueves 07:00 a 13:00 - 15:00 a 21:00 , Viernes 07:00 a 13:00 - 15:00 a 21:00 ","","Activo"
"198","Palpalá San José","La Quiaca -","CIC San José","AR-Y","1471","7248","JUJ033","Jujuy","Palpala","Palpala","Palpalá","palpala2@puntodigital.gob.ar","-24.264845","-65.211797","Lunes 07:00 a 13:00 - 14:00 a 18:00 , Martes 07:00 a 13:00 - 14:00 a 18:00 , Miércoles 07:00 a 13:00 - 14:00 a 18:00 , Jueves 07:00 a 13:00 - 14:00 a 18:00 , Viernes 07:00 a 13:00 - 14:00 a 18:00 ","https://www.facebook.com/Danieldj.68/","Activo"
"199","Perico","23 de agosto","CIC Perico","AR-Y","1460","7147","JUJ036","Jujuy","El Carmen","Perico","Perico","perico@puntodigital.gob.ar","-24.381712","-65.120108","","https://www.facebook.com/municipalidaddepericojujuy/","Activo"
"200","San Salvador de Jujuy","La Esperanza 331","Fundación Orígenes","AR-Y","1474","7170","JUJ047","Jujuy","Doctor Manuel Belgrano","San Salvador de Jujuy","San Salvador de Jujuy","salvadorjujuy@puntodigital.gob.ar","-24.1757966","-65.3114975","Lunes 08:00 a 12:00 - 14:00 a 22:00 , Martes 08:00 a 12:00 - 14:00 a 22:00 , Miércoles 08:00 a 12:00 - 14:00 a 22:00 , Jueves 08:00 a 12:00 - 14:00 a 22:00 , Viernes 08:00 a 12:00 - 14:00 a 22:00 ","https://www.facebook.com/OrigenesJujuy/","Activo"
"201","Colegio de Técnicos de la Prov. De Jujuy","José de la Iglesia 1700"," Colegio de Técnicos  de la Provincia de Jujuy (ex-Instituto Fellner)","AR-Y","1474","7170","JUJ047","Jujuy","Doctor Manuel Belgrano","San Salvador de Jujuy","San Salvador de Jujuy","institutofellner@puntodigital.gob.ar","-24.190738","-65.310748","Lunes 12:00 a 21:00 , Martes 12:00 a 21:00 , Miércoles 12:00 a 21:00 , Jueves 12:00 a 21:00 , Viernes 12:00 a 21:00 ","https://www.facebook.com/pdtecticos","Activo"
"202","Yuto","Bartolomé Mitre","Anexo municipal 8ex biblioteca)","AR-Y","1463","7237","JUJ060","Jujuy","Ledesma","Yuto","Yuto","yuto@puntodigital.gob.ar","-23.642991","-64.472365","Lunes 08:00 a 12:00 - 14:00 a 20:00 , Martes 08:00 a 12:00 - 14:00 a 20:00 , Miércoles 08:00 a 12:00 - 14:00 a 20:00 , Jueves 08:00 a 12:00 - 14:00 a 20:00 , Viernes 08:00 a 12:00 - 14:00 a 20:00 ","https://www.facebook.com/puntodigitalyuto/","Activo"
"203","Mina Pirquitas","Avenida 23 de agosto ","Edificio Municipal","AR-Y","1470","7255","JUJ030","Jujuy","Rinconada","Mina Pirquitas","Mina Pirquitas","minaspirquitas@puntodigital.gob.ar","-22.695941","-66.496596","","","Temporalmente cerrado"
"204","Rodeito","Ruta Provincial 1","CIC Rodeito","AR-Y","1461","7305","JUJ042","Jujuy","San Pedro","Rodeito","Rodeíto","rodeito@puntodigital.gob.ar","-24.245986","-64.863067","","","Activo"
"205","Caimancito","Catamarca ","Salón Municipal","AR-Y","1463","7227","JUJ007","Jujuy","Ledesma","Caimancito","Caimancito","caimancito@puntodigital.gob.ar","-23.740127","-64.591177","Lunes 08:00 a 13:00 - 18:00 a 21:30 , Martes 08:00 a 13:00 - 18:00 a 21:30 , Miércoles 08:00 a 13:00 - 18:00 a 21:30 , Jueves 08:00 a 13:00 - 18:00 a 21:30 , Viernes 08:00 a 13:00 - 18:00 a 21:30 ","","Activo"
"206","Aminga","Lalo Caceres ","CIC","AR-F","1498","7693","LRJ002","La Rioja","Castro Barros","Aminga","Castro Barros","aminga@puntodigital.gob.ar","-28.847326","-66.929863","","","Activo"
"207","Chamical","Santiago del Estero","CIC","AR-F","1499","7754","LRJ003","La Rioja","Chamical","Chamical","Chamical","chamical@puntodigital.gob.ar","-30.360841","-66.314034","","","Activo"
"209","Olta","Ruta Nacional 79 - km 208","CIC","AR-F","1504","7835","LRJ008","La Rioja","General Belgrano","Olta","General Belgrano","olta@puntodigital.gob.ar","-30.62857","-66.270089","","","Activo"
"210","Tama","Calle 7 de Octubre S/N","Dirección de la Juventud Municipal","AR-F","1503","7808","LRJ007","La Rioja","General Angel Vicente Peñaloza","Tama","General Ángel Vicente Peñaloza","tama@puntodigital.gob.ar","-30.507388","-66.530671","Lunes 09:00 a 13:00 - 16:00 a 20:00 , Martes 09:00 a 13:00 - 18:00 a 22:00 , Miércoles 09:00 a 13:00 - 16:00 a 20:00 , Jueves 09:00 a 13:00 - 18:00 a 22:00 , Viernes 09:00 a 13:00 - 16:00 a 20:00 ","https://www.facebook.com/PuntoDigital.Tama?hc_ref=ART2jqna3lIA_lcNCIOFNwpNhnuwyulLGxZeemWEA9G5JL48Be_2YzSSXsFAZSmWUEY","Activo"
"211","Ulapes","Av. San Martin  ","Dirección de Juventud Municipal ","AR-F","1508","7946","LRJ012","La Rioja","General San Martin","Ulapes","General San Martín","ulapes@puntodigital.gob.ar","-31.573828","-66.237044","Lunes 08:30 a 12:00 - 16:30 a 22:00 , Martes 08:30 a 12:00 - 16:30 a 22:00 , Miércoles 08:30 a 12:00 - 16:30 a 22:00 , Jueves 08:30 a 12:00 - 16:30 a 22:00 , Viernes 08:30 a 12:00 - 16:30 a 22:00 ","","Activo"
"212","Universidad de la 3º edad","Hipólito Irigoyen 138","Universidad de la Tercera Edad","AR-F","1510","7689","LRJ014","La Rioja","Capital","La Rioja","La Rioja","utelarioja@puntodigital.gob.ar","-29.41543","-66.859017","Lunes 09:00 a 12:00 - 18:00 a 20:00 , Martes 09:00 a 12:00 , Miércoles 09:00 a 12:00 - 18:00 a 20:00 , Jueves 09:00 a 12:00 , Viernes 09:00 a 12:00 - 18:00 a 20:00 ","https://www.facebook.com/naclarioja1?hc_ref=NEWSFEED&fref=nf","Activo"
"213","Vinchina","Calle Las Carreras ","SUM Municipal","AR-F","1514","7957","LRJ018","La Rioja","Vinchina","Villa San Jose de Vinchina","Vinchina","vinchina@puntodigital.gob.ar","-28.752949","-68.205217","Lunes 08:00 a 12:00 - 16:00 a 20:00 , Martes 08:00 a 12:00 - 16:00 a 20:00 , Miércoles 08:00 a 12:00 - 16:00 a 20:00 , Jueves 08:00 a 12:00 - 16:00 a 20:00 , Viernes 08:00 a 12:00 - 16:00 a 20:00 ","","Activo"
"214","Ex Combatientes de Malvinas","Pasaje Cabo  de Hornos 56","Centro de ex combatientes de malvinas","AR-F","1510","7689","LRJ014","La Rioja","Capital","La Rioja","La Rioja","lariojaec@puntodigital.gob.ar","-29.413454","-66.856458","","","Activo"
"215","San Luis","Av. Lafinur S/N","Centro Cultural Municipal","AR-D","1598","10816","SLU052","San Luis","La Capital","San Luis","San Luis","sanluis@puntodigital.gob.ar","-33.294126","-66.348313","","","Activo"
"216","Santa Rosa","Calle Mallea s/n","CIC","AR-M","1530","8389","MZA016","Mendoza","Santa Rosa","Santa Rosa","Santa Rosa","santarosamza@puntodigital.gob.ar","-33.254417","-68.143762","","","Activo"
"217","Malargüe","Cacique  Anca-Amun","-","AR-M","1524","8245","MZA010","Mendoza","Malargüe","Malargue","Malargüe","malargue@puntodigital.gob.ar","-35.48457","-69.594386","Miércoles 08:00 a 17:00 , Martes 10:00 a 17:00 , Jueves 10:00 a 17:00 ","https://www.facebook.com/puntodigitalmalargue","Activo"
"218","9 de Julio","Saavedra KM 25","CIC","AR-N","1542","8516","MIS053","Misiones","Eldorado","9 de Julio","Nueve de Julio","9dejulio@puntodigital.gob.ar","-26.386084","-54.465816","Lunes 08:00 a 12:00 - 16:00 a 20:00 , Martes 08:00 a 12:00 - 16:00 a 20:00 , Miércoles 08:00 a 12:00 - 16:00 a 20:00 , Jueves 08:00 a 12:00 - 16:00 a 20:00 , Viernes 08:00 a 12:00 - 16:00 a 20:00 ","","Activo"
"219","Apóstoles","Avenida 9 de Julio","Centro Cultural Raúl Delavy","AR-N","1535","8432","MIS003","Misiones","Apostoles","Apostoles","Apóstoles","apostoles@puntodigital.gob.ar","-27.913098","-55.754043","Lunes 06:30 a 12:30 - 14:00 a 18:00 , Martes 06:30 a 12:30 - 14:00 a 18:00 , Miércoles 06:30 a 12:30 - 14:00 a 18:00 , Jueves 06:30 a 12:30 - 14:00 a 18:00 , Viernes 06:30 a 12:30 - 14:00 a 18:00 , Sábado 14:00 a 18:00 ","https://www.facebook.com/puntodigitalapostoles/","Activo"
"220","Azara","Padre Enrique Darrellmann","CIC","AR-N","1535","8433","MIS006","Misiones","Apostoles","Azara","Azara","azaramisiones@puntodigital.gob.ar","-28.062416","-55.676207","","","Temporalmente cerrado"
"221","Capiovi","Martín Fierro 250","CIC","AR-N","1540","8630","MIS014","Misiones","Libertador General San Martin","Capiovi","Capioví","capiovi@puntodigital.gob.ar","-26.933013","-55.066867","Lunes 07:30 a 12:00 - 14:00 a 18:00 , Martes 07:30 a 12:00 - 14:00 a 18:00 , Miércoles 07:30 a 12:00 - 14:00 a 18:00 , Jueves 07:30 a 12:00 - 14:00 a 18:00 , Viernes 07:30 a 12:00 - 14:00 a 18:00 ","https://www.facebook.com/ciccapiovi","Activo"
"222","Colonia Delicia","Lote 42","CIC","AR-N","1542","8515","MIS020","Misiones","Eldorado","Nueva Delicia","Colonia Delicia","coloniadelicia@puntodigital.gob.ar","-26.196505","-54.603993","Lunes 08:00 a 13:00 , Martes 08:00 a 13:00 , Miércoles 08:00 a 13:00 , Jueves 08:00 a 13:00 , Viernes 08:00 a 13:00 ","","Activo"
"223","Colonia Victoria","Andres Guacurari","Municipalidad","AR-N","1542","8512","MIS022","Misiones","Eldorado","Colonia Victoria","Colonia Victoria","coloniavictoria@puntodigital.gob.ar","-26.33199","-54.622403","Martes 08:00 a 13:00 , Miércoles 08:00 a 13:00 , Jueves 08:00 a 13:00 , Viernes 08:00 a 13:00 , Lunes 08:00 a 18:00 ","","Activo"
"224","Eldorado","Misiones","CIC","AR-N","1542","8513","MIS031","Misiones","Eldorado","Eldorado","Eldorado","eldorado@puntodigital.gob.ar","-26.399318","-54.626341","Martes 16:00 a 20:00 - 07:00 a 13:00 - 13:30 a 20:00 , Miércoles 08:00 a 12:00 - 16:00 a 20:00 , Jueves 08:00 a 12:00 - 16:00 a 20:00 , Viernes 08:00 a 12:00 - 16:00 a 20:00 , Lunes 07:00 a 13:00 - 13:30 a 20:00 ","https://www.facebook.com/profile.php?id=100005809068070","Activo"
"225","Montecarlo","Avenida Libertador 1700","Dirección Nacional de Vialidad","AR-N","1541","8656","MIS052","Misiones","Montecarlo","Montecarlo","Montecarlo","montecarlo@puntodigital.gob.ar","-26.566057","-54.769698","Lunes 08:00 a 12:00 , Martes 14:00 a 18:00 , Miércoles 07:00 a 12:00 , Jueves 14:00 a 18:00 , Viernes 07:00 a 12:00 ","","Activo"
"226","Posadas","Bartolomé Mitre","Paseo de la Estación","AR-N","1547","8493","MIS057","Misiones","Capital","Posadas","Posadas","posadaspaseo@puntodigital.gob.ar","-27.374324","-55.898572","Lunes 07:00 a 20:00 ","https://www.facebook.com/Punto-Digital-Posadas-1452352591450982/","Activo"
"227","Puerto Piray","San Francisco de Asís","Centro Cultural Piray","AR-N","1541","8658","MIS061","Misiones","Montecarlo","Puerto Piray","Puerto Piray","puertopiray@puntodigital.gob.ar","-26.467288","-54.718668","Lunes 07:00 a 18:00 , Martes 07:00 a 18:00 , Miércoles 07:00 a 18:00 , Jueves 07:00 a 07:00 , Viernes 18:00 a 18:00 ","https://www.facebook.com/Punto-Digital-Puerto-Piray-292767317836426/","Activo"
"228","Puerto Rico","San Martín 2161","Paseo Mi Solar","AR-N","1540","8636","MIS062","Misiones","Libertador General San Martin","Puerto Rico","Puerto Rico","puertorico@puntodigital.gob.ar","-26.81261","-55.025287","Lunes 08:00 a 13:00 , Martes 08:00 a 13:00 , Miércoles 08:00 a 13:00 , Jueves 08:00 a 13:00 , Viernes 08:00 a 13:00 ","https://www.facebook.com/nac.paseomisolar/","Activo"
"229","San Vicente","Juan XXIII","Centro Cultural","AR-N","1546","8583","MIS069","Misiones","Guarani","San Vicente","San Vicente","sanvicente@puntodigital.gob.ar","-26.99363","-54.486448","Lunes 07:00 a 19:00 , Martes 07:00 a 19:00 , Miércoles 07:00 a 19:00 , Jueves 07:00 a 19:00 , Viernes 07:00 a 19:00 , Sábado 07:00 a 15:00 ","https://www.facebook.com/PuntoDigital-San-Vicente-1050794708383859/","Activo"
"230","Santa María Misiones","Manzana 000","Predio deportivo Municipal","AR-N","1545","8506","MIS071","Misiones","Concepcion","Santa Maria","Santa María","santamariamisiones@puntodigital.gob.ar","-27.892864","-55.354013","Lunes 07:00 a 12:00 - 14:00 a 18:00 , Martes 07:00 a 12:00 - 14:00 a 18:00 , Miércoles 07:00 a 12:00 - 14:00 a 18:00 , Jueves 07:00 a 12:00 - 14:00 a 18:00 , Viernes 07:00 a 12:00 - 14:00 a 18:00 ","","Activo"
"232","Chos Malal","San Martín 90","Centro Cultural Norte Neuquino","AR-Q","1557","8875","NEU010","Neuquén","Chos Malal","Chos Malal","Chos Malal","chosmalal@puntodigital.gob.ar","-37.374192","-70.276668","Lunes 08:00 a 12:00 , Martes 08:00 a 12:00 , Miércoles 08:00 a 12:00 , Jueves 08:00 a 12:00 , Viernes 08:00 a 12:00 ","https://www.facebook.com/NacChosMalal/?hc_ref=SEARCH&fref=nf","Activo"
"233","Manzano Amargo","Ruta Provincia Nº 54 S/N","Comisión de Fomento Manzano Amargo","AR-Q","1552","8946","NEU023","Neuquén","Minas","Manzano Amargo","Manzano Amargo","manzanoamargo@puntodigital.gob.ar","-36.754032","-70.763068","Lunes 14:00 a 19:00 , Martes 14:00 a 19:00 , Miércoles 14:00 a 19:00 , Jueves 14:00 a 19:00 , Viernes 14:00 a 19:00 ","","Activo"
"234","Villa Nahueve","Paraje Los Carrizos S/N","Comisión de Fomento Villa Nahueve","AR-Q","1552","8948","NEU043","Neuquén","Minas","Villa del Nahueve","Villa del Nahueve","villadelnahueve@puntodigital.gob.ar","-37.065848","-70.772486","","","Próximamente"
"236","Loncopué","Esteban Salvador s/n S/N","Municipalidad de Loncopué","AR-Q","1562","8917","NEU021","Neuquén","Loncopue","Loncopue","Loncopué","loncopue@puntodigital.gob.ar","-38.068889","-70.611588","Lunes 08:00 a 22:00 , Martes 08:00 a 22:00 , Miércoles 08:00 a 22:00 , Jueves 08:00 a 22:00 , Viernes 08:00 a 22:00 , Sábado 16:00 a 22:00 , Domingo 16:00 a 22:00 ","https://www.facebook.com/Punto-Digital-Loncopu%C3%A9-1028833960584730/","Activo"
"237","San Martín de los Andes","Cuesta Juez Quiroga S/N","-","AR-Q","1564","8904","NEU034","Neuquén","Lacar","San Martin de los Andes","San Martín de los Andes","sanmartindelosandes@puntodigital.gob.ar","-40.162067","-71.349463","Lunes 09:00 a 16:00 , Martes 09:00 a 16:00 , Miércoles 09:00 a 16:00 , Jueves 09:00 a 16:00 , Viernes 09:00 a 16:00 ","https://www.facebook.com/Punto-Digital-San-Mart%C3%ADn-de-los-Andes-395054443999723/","Activo"
"238","Telén","San Martin 674","Edificio municipal","AR-L","1485","7568","LAP069","La Pampa","Loventue","Telen","Telén","telen@puntodigital.gob.ar","-36.263463","-65.51156","Lunes 09:00 a 11:00 - 15:00 a 19:00 , Martes 09:00 a 11:00 - 15:00 a 19:00 , Miércoles 09:00 a 11:00 - 15:00 a 19:00 , Jueves 09:00 a 11:00 - 15:00 a 19:00 , Viernes 09:00 a 11:00 - 15:00 a 19:00 ","https://www.facebook.com/Punto-Digital-Telen-La-Pampa-628037990724766/","Activo"
"239","Rancul","Rivadavia 769","Edificio municipal","AR-L","1484","7603","LAP059","La Pampa","Rancul","Rancul","Rancul","rancul@puntodigital.gob.ar","-35.066333","-64.687929","Lunes 08:00 a 12:00 - 17:00 a 19:00 , Martes 08:00 a 12:00 - 17:00 a 19:00 , Miércoles 08:00 a 12:00 - 17:00 a 19:00 , Jueves 08:00 a 12:00 - 17:00 a 19:00 , Viernes 08:00 a 12:00 - 17:00 a 19:00 ","https://www.facebook.com/PUNTODIGITALRancul","Activo"
"240","Miguel Riglos","Avenida San Martin","Centro Cultural Arancedo","AR-L","1490","7498","LAP049","La Pampa","Atreuco","Miguel Riglos","Miguel Riglos","riglos@puntodigital.gob.ar","-36.852067","-63.68856","Lunes 08:00 a 12:00 - 17:00 a 19:00 , Martes 08:00 a 12:00 - 17:00 a 19:00 , Miércoles 08:00 a 12:00 - 17:00 a 19:00 , Jueves 08:00 a 12:00 - 17:00 a 19:00 , Viernes 08:00 a 12:00 - 17:00 a 19:00 ","https://www.facebook.com/Punto-Digital-Miguel-Riglos-1583515681884792","Activo"
"241","Toay","Avenida 13 de Caballería","Casa de la Historia y la Cultura del Bicentenario","AR-L","1496","7616","LAP070","La Pampa","Toay","Toay","Toay","toay@puntodigital.gob.ar","-36.66539","-64.380097","Lunes 08:30 a 12:30 - 14:00 a 20:00 , Martes 08:30 a 12:30 - 14:00 a 20:00 , Miércoles 08:30 a 12:30 - 14:00 a 20:00 , Jueves 08:30 a 12:30 - 14:00 a 20:00 , Viernes 08:30 a 12:30 - 14:00 a 20:00 ","https://www.facebook.com/PDtoaylapampa/","Activo"
"242","Gral. Roca","Avenida San Juan 3445","CIC","AR-R","1569","9174","RNO018","Río Negro","General Roca","General Roca","General Roca","generalroca@puntodigital.gob.ar","-39.006995","-67.583224","Lunes 14:00 a 19:00 , Martes 14:00 a 18:00 , Miércoles 14:00 a 19:00 , Jueves 14:00 a 18:00 , Viernes 14:00 a 19:00 ","","Activo"
"243","Campo Contreras","Ingenio Contreras y 2 de Septiembre en la Ciudad de Santiago del Estero nn","CIC","AR-G","1638","12091","SGO069","Santiago del Estero","Capital","Santiago del Estero","Santiago del Estero","campocontreras@puntodigital.gob.ar","-27.834845","-64.265192","Lunes 07:30 a 12:00 - 14:00 a 18:00 , Martes 07:30 a 12:00 - 14:00 a 18:00 , Miércoles 07:30 a 12:00 - 14:00 a 18:00 , Jueves 07:30 a 12:00 - 14:00 a 18:00 , Viernes 07:30 a 12:00 - 14:00 a 18:00 ","https://www.facebook.com/PDCampoContreras","Activo"
"244","Clodomira","Republica 409, Clodomira, Santiago del Estero 409","Centro de Usos Múltiples Municipal","AR-G","1621","12024","SGO012","Santiago del Estero","Banda","Clodomira","Clodomira","clodomira@puntodigital.gob.ar","-27.575243","-64.134257","Lunes 07:00 a 13:00 , Martes 07:00 a 13:00 , Miércoles 07:00 a 13:00 , Jueves 07:00 a 13:00 , Viernes 07:00 a 13:00 , Sábado 08:00 a 13:00 ","https://www.facebook.com/nac.clodomira/?fref=ts","Activo"
"245","Selva","1º de Mayo 1010","CIC","AR-G","1624","12854","SGO071","Santiago del Estero","Rivadavia","Selva","Selva","selva@puntodigital.gob.ar","-29.770394","-62.047842","Lunes 08:00 a 12:00 - 15:00 a 18:00 , Martes 08:00 a 12:00 - 15:00 a 18:00 , Miércoles 08:00 a 12:00 - 15:00 a 18:00 , Jueves 08:00 a 12:00 - 15:00 a 18:00 , Viernes 08:00 a 12:00 - 15:00 a 18:00 ","https://www.facebook.com/nac.selva","Activo"
"246","Campo Gallo","Calle Rivadavia S/N. El pueblo no tiene numerados los sd","Municipalidad de Campo Gallo","AR-G","1620","11868","SGO008","Santiago del Estero","Alberdi","Campo Gallo","Campo Gallo","campogallo@puntodigital.gob.ar","-26.584169","-62.85004","Lunes 09:00 a 13:00 - 15:00 a 21:00 , Martes 09:00 a 13:00 - 15:00 a 21:00 , Miércoles 09:00 a 13:00 - 15:00 a 21:00 , Jueves 09:00 a 13:00 - 15:00 a 21:00 , Viernes 09:00 a 13:00 - 15:00 a 21:00 ","","Activo"
"247","Campo Gallo CAJ","Calle Lasalle S/N e Independencia. El pueblo no tiene numerados los domicilios. Templo Parroquial fr sd","CAJ","AR-G","1620","11868","SGO008","Santiago del Estero","Alberdi","Campo Gallo","Campo Gallo","campogallocaj@puntodigital.gob.ar","-26.58231","-62.845573","","","Activo"
"248","Cañada de Gómez","Quintana 46","Casa bicentenario","AR-S","1696","11284","SFE044","Santa Fe","Iriondo","Cañada de Gomez","Cañada de Gómez","canada@puntodigital.gob.ar","-32.820003","-61.401061","Lunes 08:00 a 13:00 , Martes 08:00 a 13:00 , Miércoles 08:00 a 13:00 , Jueves 08:00 a 13:00 , Viernes 08:00 a 13:00 ","https://www.facebook.com/puntodigitalCDG/","Activo"
"249","Ceres","Av. Vicente Casares 200","Predio del ferrocarril","AR-S","1685","11511","SFE066","Santa Fe","San Cristobal","Ceres","Ceres","ceres@puntodigital.gob.ar","-29.883419","-61.944309","Lunes 07:00 a 13:00 - 18:00 a 21:00 , Martes 07:00 a 13:00 - 18:00 a 21:00 , Miércoles 07:00 a 13:00 - 18:00 a 21:00 , Jueves 07:00 a 13:00 - 18:00 a 21:00 , Viernes 07:00 a 13:00 - 18:00 a 21:00 ","https://www.facebook.com/Punto-DigitalCeres-103588036924703/","Activo"
"250","Comuna Emilia","Bdier. Estanislao López","Centro Cultural Dr. Mario Fiorano","AR-S","1694","11318","SFE305","Santa Fe","La Capital","Emilia","Santa Fe","comunaemilia@puntodigital.gob.ar","-31.058452","-60.745463","","","Activo"
"251","El Trebol","Bv. América 1181","Municipalidad","AR-S","1698","11693","SFE105","Santa Fe","San Martin","El Trebol","El Trébol","eltrebol@puntodigital.gob.ar","-32.199466","-61.700429","Martes 08:00 a 20:00 , Miércoles 08:00 a 19:30 , Jueves 08:00 a 19:00 , Viernes 08:00 a 20:00 , Lunes 08:00 a 19:30 ","NAC -Punto Digital- El Trébol","Activo"
"252","Esperanza","Rivadavia","Liceo Municipal  José Pedroni  ","AR-S","1700","11367","SFE112","Santa Fe","Las Colonias","Esperanza","Esperanza","esperanza@puntodigital.gob.ar","-31.448986","-60.930366","Lunes 08:30 a 12:30 - 14:00 a 21:00 , Martes 08:30 a 12:30 - 14:00 a 21:00 , Miércoles 08:30 a 12:30 - 14:00 a 21:00 , Jueves 08:30 a 12:30 - 14:00 a 21:00 , Viernes 08:30 a 12:30 - 14:00 a 21:00 ","https://www.facebook.com/profile.php?id=100008178489492","Activo"
"253","Gálvez","Bv. Pasteur 444","Liceo municipal","AR-S","1693","11580","SFE132","Santa Fe","San Jeronimo","Galvez","Gálvez","galvezsantafe@puntodigital.gob.ar","-32.0314432","-61.2245739","Lunes 08:30 a 11:00 , Martes 08:30 a 11:00 , Miércoles 08:30 a 11:00 , Jueves 15:00 a 21:00 , Viernes 08:30 a 11:00 ","https://www.facebook.com/puntodigitalgalvez/","Activo"
"254","Granadero Baigorria 1","Calle 2 180","Edificio municipal","AR-S","1684","11477","SFE143","Santa Fe","Rosario","Granadero Baigorria","Granadero Baigorria","baigorria1@puntodigital.gob.ar","-32.847333","-60.709736","Lunes 08:00 a 18:00 , Martes 08:00 a 18:00 , Miércoles 08:00 a 18:00 , Jueves 08:00 a 18:00 , Viernes 08:00 a 18:00 ","https://www.facebook.com/puntodigital.granaderobaigorria/","Activo"
"255","Granadero Baigorria 2","Rivadavia 276","-","AR-S","1684","11477","SFE143","Santa Fe","Rosario","Granadero Baigorria","Granadero Baigorria","baigorria2@puntodigital.gob.ar","-32.847333","-60.709736","Lunes 07:00 a 19:00 , Martes 07:00 a 19:00 , Miércoles 07:00 a 19:00 , Jueves 07:00 a 19:00 , Viernes 07:00 a 19:00 ","https://www.facebook.com/puntodigital.granaderobaigorria/","Activo"
"256","Las Parejas","Avenida 17 615","Edificio municipal","AR-S","1692","10946","SFE186","Santa Fe","Belgrano","Las Parejas","Las Parejas","lasparejas@puntodigital.gob.ar","-32.682681","-61.523158","Lunes 07:00 a 13:00 - 13:30 a 19:30 , Martes 07:00 a 13:00 - 13:30 a 19:30 , Miércoles 07:00 a 13:00 - 13:30 a 19:30 , Jueves 07:00 a 13:00 - 13:30 a 19:30 , Viernes 07:00 a 13:00 - 13:30 a 19:30 ","https://www.facebook.com/PdLASPAREJAS","Activo"
"257","Llambi Campbell","General Urquiza 338","Casa del Pueblo Centro Cultural ","AR-S","1694","11320","SFE305","Santa Fe","La Capital","Llambi Campbell","Santa Fe","llambicampbell@puntodigital.gob.ar","-31.185515","-60.745529","Lunes 08:00 a 12:00 - 14:00 a 20:00 , Martes 08:00 a 12:00 - 14:00 a 20:00 , Miércoles 08:00 a 12:00 - 14:00 a 20:00 , Jueves 08:00 a 12:00 - 14:00 a 20:00 , Viernes 08:00 a 12:00 - 14:00 a 20:00 ","https://www.facebook.com/Punto-Digital-Llambi-Campbell-677632435676145/","Activo"
"258","Malabrigo","Belgrano 1565","Casa Municipal de Cultura","AR-S","1695","11251","SFE206","Santa Fe","General Obligado","Malabrigo","Malabrigo","malabrigo@puntodigital.gob.ar","-29.347444","-59.9703702","Lunes 07:00 a 13:00 - 14:00 a 20:00 , Martes 07:00 a 13:00 - 14:00 a 20:00 , Miércoles 07:00 a 13:00 - 14:00 a 20:00 , Jueves 07:00 a 13:00 - 14:00 a 20:00 , Viernes 07:00 a 13:00 - 14:00 a 20:00 ","https://www.facebook.com/NacMalabrigo","Activo"
"259","Puerto Gral. San Martín","Avenida Córdoba 1152","Centro Cultural Municipal","AR-S","1687","11651","SFE252","Santa Fe","San Lorenzo","Puerto General San Martin","Puerto General San Martín","puertosanmartin@puntodigital.gob.ar","-32.71623","-60.738471","Lunes 07:00 a 19:00 , Martes 07:00 a 19:00 , Miércoles 07:00 a 19:00 , Jueves 07:00 a 19:00 , Viernes 07:00 a 19:00 ","https://www.facebook.com/Punto.Digital.MPGSM","Activo"
"260","Roldán","Rioja 642","Sede del Centro de Formación Regional Roldán","AR-S","1687","11654","SFE262","Santa Fe","San Lorenzo","Roldan","Roldán","roldan@puntodigital.gob.ar","-32.8984715","-60.9062102","Lunes 08:00 a 13:00 - 16:30 a 21:30 , Martes 08:00 a 13:00 - 16:30 a 21:30 , Miércoles 08:00 a 13:00 - 16:30 a 21:30 , Jueves 08:00 a 13:00 - 16:30 a 21:30 , Viernes 08:00 a 13:00 - 16:30 a 21:30 ","https://www.facebook.com/nac.roldan","Activo"
"261","UNR","Riobamba 189 Bis","Universidad Nacional de Rosario","AR-S","1684","11488","SFE264","Santa Fe","Rosario","Rosario","Rosario","unrrosario@puntodigital.gob.ar","-32.965317","-60.629524","Lunes 09:00 a 17:00 , Martes 09:00 a 17:00 , Miércoles 09:00 a 17:00 , Jueves 09:00 a 17:00 , Viernes 09:00 a 17:00 ","https://www.facebook.com/nacseuunr2015N/","Activo"
"262","San Genaro","Santa Fe 479","Centro de Usos Múltiples Municipal ","AR-S","1693","11591","SFE284","Santa Fe","San Jeronimo","San Genaro","San Genaro","sangenaro@puntodigital.gob.ar","-32.369493","-61.361661","","https://www.facebook.com/puntodigital.sangenaro.5","Activo"
"263","Santa Rosa de Calchines","Fray Antonio Rossi y Presbítero Pedro Luis Marozzi","Edificio municipal","AR-S","1699","11094","SFE310","Santa Fe","Garay","Santa Rosa de Calchines","Santa Rosa de Calchines","srcalchines@puntodigital.gob.ar","-31.421601","-60.333554","Lunes 08:00 a 12:00 - 14:00 a 18:00 , Martes 08:00 a 12:00 - 14:00 a 18:00 , Miércoles 08:00 a 12:00 - 14:00 a 18:00 , Jueves 08:00 a 12:00 - 14:00 a 18:00 , Viernes 08:00 a 12:00 - 14:00 a 18:00 ","https://www.facebook.com/nac.santarosadecalchines/","Activo"
"264","Sauce Viejo","Córdoba 1400","CIC","AR-S","1694","11330","SFE318","Santa Fe","La Capital","Sauce Viejo","Sauce Viejo","sauceviejo@puntodigital.gob.ar","-31.773717","-60.837698","Lunes 08:00 a 19:00 , Martes 08:00 a 19:00 , Miércoles 08:00 a 19:00 , Jueves 08:00 a 19:00 , Viernes 08:00 a 19:00 ","https://www.facebook.com/Punto-Digital-Sauce-Viejo-607733102664693/?ref=br_rs","Activo"
"265","Tostado","Balcarce","Liceo municipal","AR-S","1701","11449","SFE336","Santa Fe","Nueve de Julio","Tostado","Tostado","tostado@puntodigital.gob.ar","-29.229162","-61.77172","Lunes 09:00 a 12:00 - 15:00 a 20:00 , Martes 09:00 a 12:00 - 15:00 a 20:00 , Miércoles 09:00 a 12:00 - 15:00 a 20:00 , Jueves 09:00 a 12:00 - 15:00 a 20:00 , Viernes 09:00 a 12:00 - 15:00 a 20:00 ","https://www.facebook.com/nac.tostado/?ref=br_rs","Activo"
"266","UTN","Estanislao Ceballoz 1341","Universidad Tecnologica Nacional","AR-S","1684","11488","SFE264","Santa Fe","Rosario","Rosario","Rosario","utnrosario@puntodigital.gob.ar","-32.944243","-60.650539","Lunes 08:00 a 12:00 , Martes 08:00 a 12:00 , Miércoles 08:00 a 12:00 , Jueves 08:00 a 12:00 , Viernes 08:00 a 12:00 ","","Activo"
"267","Venado Tuerto","Vuelta de Obligado 298","CIC","AR-S","1683","11162","SFE339","Santa Fe","General Lopez","Venado Tuerto","Venado Tuerto","venadotuerto@puntodigital.gob.ar","-33.759775","-61.95021","Lunes 07:00 a 19:00 , Martes 07:00 a 19:00 , Miércoles 07:00 a 19:00 , Jueves 07:00 a 19:00 , Viernes 07:00 a 19:00 ","https://www.facebook.com/Punto.Digital.VT","Activo"
"268","Ibarlucea","Av. Del Rosario 800","Centro Cultural Ybarlucea","AR-S","1684","11478","SFE155","Santa Fe","Rosario","Ibarlucea","Ibarlucea","ybarlucea@puntodigital.gob.ar","-32.846796","-60.79783","Lunes 16:00 a 20:00 - 08:00 a 12:00 , Martes 08:00 a 12:00 - 16:00 a 20:00 , Miércoles 08:00 a 12:00 - 16:00 a 20:00 , Jueves 08:00 a 12:00 - 16:00 a 20:00 , Viernes 08:00 a 12:00 - 16:00 a 20:00 ","","Activo"
"269","Asociación Nazareth","Guemes Martin 2735","Asociación Nazareth","AR-S","1684","11488","SFE264","Santa Fe","Rosario","Rosario","Rosario","nazareth@puntodigital.gob.ar","-32.931949","-60.657956","Lunes 08:00 a 16:30 , Martes 08:00 a 16:30 , Miércoles 08:00 a 16:30 , Jueves 08:00 a 16:30 , Viernes 08:00 a 16:30 ","","Activo"
"270","Politécnico","Ayacucho 1667","Politecnico ","AR-S","1684","11488","SFE264","Santa Fe","Rosario","Rosario","Rosario","politecnicorosario@puntodigital.gob.ar","-32.944243","-60.650539","Lunes 08:00 a 20:00 , Martes 08:00 a 20:00 , Miércoles 08:00 a 20:00 , Jueves 08:00 a 20:00 , Viernes 08:00 a 20:00 ","https://www.facebook.com/puntodigitalpolitecnico/","Activo"
"271","Villa Gobernador Gálvez","Nahuel Huapi y Pasaje siete","CIC","AR-S","1684","11492","SFE349","Santa Fe","Rosario","Villa Gobernador Galvez","Villa Gobernador Gálvez","villagobgalvez@puntodigital.gob.ar","-33.032705","-60.650701","","https://www.facebook.com/Punto-Digital-Villa-Gobernador-Galv%C3%A9z-413629502340426/","Activo"
"272","Santa Fe CAJ","Facundo Zuviría 8002","CAJ","AR-S","1694","11328","SFE305","Santa Fe","La Capital","Santa Fe","Santa Fe","cajsantafe@puntodigital.gob.ar","-31.5928168","-60.6990915","Lunes 09:00 a 15:00 , Martes 09:00 a 15:00 , Miércoles 09:00 a 15:00 , Jueves 09:00 a 15:00 , Viernes 09:00 a 15:00 ","https://www.facebook.com/PuntoDigitalCAJStaFe/","Activo"
"273","Comuna Fighiera","Moreno 1347","Polideportivo","AR-S","1684","11474","SFE121","Santa Fe","Rosario","Fighiera","Fighiera","fighiera@puntodigital.gob.ar","-33.193012","-60.471272","Lunes 07:00 a 21:00 , Martes 07:00 a 21:00 , Miércoles 07:00 a 21:00 , Jueves 07:00 a 21:00 , Viernes 07:00 a 21:00 ","https://www.facebook.com/nacfighiera.naccomunadefighiera?fref=ufi","Activo"
"274","UNR Derecho","Córdoba 2020","Universidad Nacional de Rosario","AR-S","1684","11488","SFE264","Santa Fe","Rosario","Rosario","Rosario","unrderecho@puntodigital.gob.ar","-32.943857","-60.651055","","","Activo"
"275","Rafaela","RUTA 34 Km 217, Ex Granja Peretti","Asociacion Nazareth","AR-S","1689","11034","SFE255","Santa Fe","Castellanos","Rafaela","Rafaela","rafaela@puntodigital.gob.ar","-31.252598","-61.491642","","https://www.facebook.com/PDNazarethRafaela/?hc_ref=SEARCH","Activo"
"278","Capitán Bermudez","Laprida y Ayacucho sin numero","CIC","AR-S","1687","11645","SFE049","Santa Fe","San Lorenzo","Capitan Bermudez","Capitán Bermúdez","capitanbermudez@puntodigital.gob.ar","-32.802115","-60.726659","","","Activo"
"280","25 de Mayo","Boulevard José Primitivo Albornoz","-","AR-J","1596","10513","SJU018","San Juan","Veinticinco de Mayo","La Chimbera","Veinticinco de Mayo","25demayo@puntodigital.gob.ar","-32.022627","-67.666223","Lunes 08:00 a 20:00 ","","Activo"
"281","Chimbas","Patagonia y Greco s/n","-","AR-J","1583","10363","SJU005","San Juan","Chimbas","Chimbas","Chimbas","chimbas@puntodigital.gob.ar","-31.502887","-68.513431","Lunes 07:00 a 19:00 , Martes 07:00 a 19:00 , Jueves 07:00 a 19:00 , Miércoles 07:00 a 19:00 , Viernes 07:00 a 19:00 ","","Activo"
"282","San Martín","Ruta Nacional Eva Perónentre S/N","-","AR-J","1591","10461","SJU013","San Juan","San Martin","Villa San Martin","San Martín","sanmartinsanjuan@puntodigital.gob.ar","-31.491243","-68.415277","","","Temporalmente cerrado"
"283","Media Agua","José Ares ","CIC","AR-J","1593","10482","SJU015","San Juan","Sarmiento","Villa Media Agua","Sarmiento","mediaagua@puntodigital.gob.ar","-31.985913","-68.428898","Lunes 08:00 a 13:00 - 17:30 a 21:30 , Martes 08:00 a 13:00 - 17:30 a 21:30 , Miércoles 08:00 a 13:00 - 17:30 a 21:30 , Jueves 08:00 a 13:00 - 17:30 a 21:30 , Viernes 08:00 a 13:00 - 17:30 a 21:30 ","https://www.facebook.com/pdmediaagua/","Activo"
"284","Rawson San Juan","Dr. Ortega S/N","Biblioteca Popular Sur","AR-J","1588","10443","SJU010","San Juan","Rawson","Rawson","Rawson","rawson@puntodigital.gob.ar","-31.666657","-68.45317","Lunes 09:00 a 13:00 - 17:00 a 21:00 , Martes 09:00 a 13:00 - 17:00 a 21:00 , Miércoles 09:00 a 13:00 - 17:00 a 21:00 , Jueves 09:00 a 13:00 - 17:00 a 21:00 , Viernes 09:00 a 13:00 - 17:00 a 21:00 ","","Activo"
"285","Médano de Oro","Calle Ramón Franco S/N","-","AR-J","1588","10437","SJU010","San Juan","Rawson","Colonia Medano de Oro","Rawson","mediaagua@puntodigital.gob.ar","-31.606151","-68.449485","Martes 08:00 a 13:00 - 14:00 a 20:00 , Miércoles 08:00 a 13:00 - 14:00 a 20:00 , Jueves 08:00 a 13:00 - 14:00 a 20:00 , Viernes 08:00 a 13:00 - 14:00 a 20:00 , Sábado 09:00 a 13:00 ","https://www.facebook.com/Nac-Medanodeoro-Cic-1155077677936936/?hc_ref=NEWSFEED","Activo"
"286","Jachal","Ruta Provincial 491","-","AR-J","1585","10409","SJU007","San Juan","Jachal","San Jose de Jachal","Jáchal","jachal@puntodigital.gob.ar","-30.249763","-68.749866","","","Activo"
"287","Escuela de artes y Oficios","Independencia 910","Escuela de Artes y Oficios","AR-A","1681","9508","SAL048","Salta","Capital","Salta","Salta","saltaartesyoficios@puntodigital.gob.ar","-24.808333","-65.403914","Lunes 08:00 a 22:00 , Martes 08:00 a 22:00 , Miércoles 08:00 a 22:00 , Jueves 08:00 a 22:00 , Viernes 08:00 a 22:00 ","","Activo"
"288","Barrio Unión","Miró manzana 357a","CIC Barrio Unión","AR-A","1681","9505","SAL048","Salta","Capital","Salta","Salta","saltaunion@puntodigital.gob.ar","-24.722528","-65.394026","Martes 08:00 a 20:00 , Miércoles 08:00 a 20:00 , Jueves 08:00 a 20:00 , Viernes 08:00 a 20:00 , Lunes 08:00 a 20:00 ","https://www.facebook.com/PD.gob.ar/","Activo"
"289","San Antonio de los Cobres","Avellaneda","Mercado Municipal","AR-A","1682","9829","SAL049","Salta","Los Andes","San Antonio de los Cobres","San Antonio de los Cobres","sanantoniodeloscobres@puntodigital.gob.ar","-24.218534","-66.319538","Lunes 08:00 a 13:00 - 14:00 a 18:00 , Martes 08:00 a 13:00 - 14:00 a 18:00 , Miércoles 08:00 a 13:00 - 14:00 a 18:00 , Jueves 08:00 a 13:00 - 14:00 a 18:00 , Viernes 08:00 a 13:00 - 14:00 a 18:00 ","","Activo"
"290","Santa Cecilia","Martín Fierro","CIC Santa Cecilia","AR-A","1681","9505","SAL048","Salta","Capital","Salta","Salta","santacecilia@puntodigital.gob.ar","-24.830325","-65.397813","Lunes 09:00 a 12:00 - 15:00 a 22:00 , Martes 09:00 a 12:00 - 15:00 a 22:00 , Miércoles 09:00 a 12:00 - 15:00 a 22:00 , Jueves 09:00 a 12:00 - 15:00 a 22:00 , Viernes 09:00 a 12:00 - 15:00 a 22:00 ","","Activo"
"291","CIC Constitución","Las Bancas","Cic Constitución","AR-A","1681","9505","SAL048","Salta","Capital","Salta","Salta","constitucionsalta@puntodigital.gob.ar","-24.829702","-65.393629","Lunes 08:00 a 22:00 , Martes 08:00 a 22:00 , Miércoles 08:00 a 22:00 , Jueves 08:00 a 22:00 , Viernes 08:00 a 22:00 ","","Activo"
"292","Penal de Castañares","Houssay","Penal de Castañares","AR-A","1681","9508","SAL048","Salta","Capital","Salta","Salta","castanares@puntodigital.gob.ar","-24.730256","-65.406203","Lunes 08:00 a 18:00 , Martes 08:00 a 18:00 , Miércoles 08:00 a 18:00 , Jueves 08:00 a 18:00 , Viernes 08:00 a 18:00 , Sábado 08:00 a 18:00 ","","Activo"
"293","Pichanal","San Francisco","ONG (Arakuarenda)","AR-A","1668","9937","SAL041","Salta","Oran","Pichanal","Pichanal","pichanal@puntodigital.gob.ar","-23.309714","-64.219738","Lunes 14:00 a 20:00 , Martes 14:00 a 20:00 , Miércoles 14:00 a 20:00 , Jueves 14:00 a 20:00 , Viernes 14:00 a 20:00 , Sábado 16:00 a 20:00 ","https://www.facebook.com/Arakuarenda-Punto-Digital-Pichanal-991334920998544/?hc_ref=SEARCH","Activo"
"294","Cerrillos","s/d s/d","s/d","AR-A","1676","9523","SAL009","Salta","Cerrillos","Cerrillos","San José de los Cerrillos","cerrillos@puntodigital.gob.ar","-24.896172","-65.487373","","","Próximamente"
"295","Olacapato","s/d s/d","s/d","AR-A","1682","9828","SAL049","Salta","Los Andes","Olacapato","San Antonio de los Cobres","olacapato@puntodigital.gob.ar","-24.137472","-66.716537","","","Próximamente"
"296","Piedra Buena","Bella vista 25","CIC","AR-Z","1608","10863","SCR002","Santa Cruz","Corpen Aike","Comandante Luis Piedrabuena","Comandante Luis Piedrabuena","piedrabuena@puntodigital.gob.ar","-49.974078","-68.910928","Lunes 09:00 a 21:00 , Martes 09:00 a 21:00 , Miércoles 09:00 a 21:00 , Jueves 09:00 a 21:00 , Viernes 09:00 a 21:00 ","https://www.facebook.com/nacpiedrabuena.santacruz","Activo"
"297","Puerto San Julián","Nicanor Hernandez 1.550","CIC","AR-Z","1612","10921","SCR010","Santa Cruz","Magallanes","Puerto San Julian","Puerto San Julián","sanjulian@puntodigital.gob.ar","-49.310085","-67.741528","Lunes 10:00 a 19:30 , Martes 10:00 a 19:30 , Miércoles 10:00 a 19:30 , Jueves 10:00 a 19:30 , Viernes 10:00 a 19:30 ","https://www.facebook.com/puntodigital.sanjulian?fref=ts","Activo"
"298","Río Turbio","Av. circunvalación gendarmeria nacional 1105","CIC","AR-Z","1613","10904","SCR013","Santa Cruz","Güer Aike","Yacimientos Rio Turbio","Río Turbio","rioturbio@puntodigital.gob.ar","-51.530241","-72.336476","","https://www.facebook.com/Punto-Digital-R%C3%ADo-Turbio-1496213603769392/?ref=br_rs","Activo"
"299","Las Heras","Manzana 277A Solar 2","CIC","AR-Z","1607","10881","SCR005","Santa Cruz","Deseado","Las Heras","Las Heras","lasherassantacruz@puntodigital.gob.ar","-46.548649","-68.952169","Martes 09:00 a 20:00 , Jueves 09:00 a 20:00 , Lunes 09:00 a 21:00 , Miércoles 09:00 a 21:00 , Viernes 09:00 a 21:00 , Sábado 16:00 a 21:00 ","https://www.facebook.com/Punto-Digital-Las-Heras-Santa-Cruz-1647013078917996/?ref=br_rs","Activo"
"300","Cañadón Seco","Estancia “Los Claveles”","Fundación Valdocco","AR-Z","1607","10877","SCR019","Santa Cruz","Deseado","Cañadon Seco","Cañadón Seco","canadonseco@puntodigital.gob.ar","-46.532181","-67.551847","","","Activo"
"302","Río Gallegos Kunfi Quiros","Los Pozos 260","Biblioteca Popular  Kunfi Quiros","AR-Z","1613","10901","SCR012","Santa Cruz","Güer Aike","Rio Gallegos","Río Gallegos","kunfiquiros@puntodigital.gob.ar","-51.633104","-69.198223","Lunes 09:00 a 16:00 , Martes 09:00 a 16:00 , Miércoles 09:00 a 16:00 , Jueves 09:00 a 16:00 , Viernes 09:00 a 16:00 ","https://www.facebook.com/Punto-Digital-R%C3%ADo-Gallegos-Kunfi-Quir%C3%B3s-713470382173796/?ref=br_rs","Activo"
"303","Puerto Deseado","Venezuela y Patagonia Centenario","Escuela primaria provincial n° 56 Krewen Kau.","AR-Z","1607","10883","SCR009","Santa Cruz","Deseado","Puerto Deseado","Puerto Deseado","puertodeseado@puntodigital.gob.ar","-47.746115","-65.888207","Lunes 08:30 a 20:30 , Martes 08:30 a 20:30 , Miércoles 08:30 a 20:30 , Jueves 08:30 a 20:30 , Viernes 08:30 a 20:30 ","","Activo"
"304","Pico Truncado","Urquiza 950","Centro de Integración y Capacitación","AR-Z","1607","10882","SCR008","Santa Cruz","Deseado","Pico Truncado","Pico Truncado","picotruncado@puntodigital.gob.ar","-46.803732","-67.957993","Lunes 08:00 a 12:00 - 14:00 a 22:00 , Martes 08:00 a 12:00 - 14:00 a 22:00 , Miércoles 08:00 a 12:00 - 14:00 a 22:00 , Jueves 08:00 a 12:00 - 14:00 a 22:00 , Viernes 08:00 a 12:00 - 14:00 a 22:00 ","","Activo"
"305","Gregores","Ricardo Cittadini 34","CIC","AR-Z","1610","10925","SCR004","Santa Cruz","Rio Chico","Gobernador Gregores","Gobernador Gregores","gregores@puntodigital.gob.ar","-48.750785","-70.248556","","","Próximamente"
"306","Piedra Buena Batallón","Bella vista Manzana 291","Salon del ejercito argentino","AR-Z","1608","10863","SCR002","Santa Cruz","Corpen Aike","Comandante Luis Piedrabuena","Comandante Luis Piedrabuena","piedrabuena2@puntodigital.gob.ar","-49.972602","-68.916893","Lunes 08:00 a 13:00 - 15:00 a 18:00 , Martes 08:00 a 13:00 - 15:00 a 18:00 , Miércoles 08:00 a 13:00 , Jueves 08:00 a 13:00 - 15:00 a 18:00 , Viernes 08:00 a 13:00 , Sábado 20:00 a 23:59 ","","Activo"
"308","Ushuaia","Kuanip 2089","Edificio municipal","AR-V","1642","13537","TDF003","Tierra del Fuego","Ushuaia","Ushuaia","Ushuaia","ushuaia@puntodigital.gob.ar","-54.822766","-68.350633","Lunes 08:00 a 21:00 , Martes 08:00 a 21:00 , Jueves 08:00 a 21:00 , Miércoles 08:00 a 21:00 , Viernes 08:00 a 21:00 , Sábado 09:00 a 14:00 ","","Activo"
"309","Casa de la ciudad","Catamarca 920","Casa de la Ciudad: Coordinación de Políticas Sociales","AR-T","1659","13378","TUC086","Tucumán","Capital","San Miguel de Tucuman","San Miguel de Tucumán","tucumancasaciudad@puntodigital.gob.ar","-26.816862","-65.209454","Lunes 08:30 a 13:00 - 16:30 a 21:30 , Martes 08:30 a 13:00 - 16:30 a 22:00 , Miércoles 08:30 a 13:00 - 17:00 a 20:00 , Jueves 08:30 a 13:00 - 16:30 a 20:30 , Viernes 09:00 a 13:00 - 15:00 a 18:00 , Sábado 10:30 a 13:00 - 15:00 a 20:00 ","https://www.facebook.com/PuntoDigitalCasaDeLaCiudadSMT","Activo"
"311","Ente Cultural","San Martín 251","Ente Cultural Tucumán ","AR-T","1659","13378","TUC086","Tucumán","Capital","San Miguel de Tucuman","San Miguel de Tucumán","enteculturaltucuman@puntodigital.gob.ar","-26.830284","-65.200635","Lunes 08:00 a 19:00 , Martes 08:00 a 19:00 , Miércoles 08:00 a 19:00 , Jueves 08:00 a 19:00 , Viernes 08:00 a 19:00 ","https://www.facebook.com/NacTucumanECT/","Activo"
"312","Famaillá","Avda. Mitre esquina Caseros sd","Casa de la Cultura Municipal","AR-T","1657","13157","TUC040","Tucumán","Famailla","Famailla","Famaillá","famailla@puntodigital.gob.ar","-27.052079","-65.405843","Lunes 08:00 a 13:00 - 17:00 a 22:00 , Martes 08:00 a 13:00 - 17:00 a 22:00 , Miércoles 08:00 a 13:00 - 17:00 a 22:00 , Jueves 08:00 a 13:00 - 17:00 a 22:00 , Viernes 08:00 a 13:00 - 17:00 a 22:00 ","","Activo"
"313","La Cocha","Juan B. Alberdi y Avellaneda sd","CIC","AR-T","1655","13240","TUC047","Tucumán","La Cocha","La Cocha","La Cocha","lacocha@puntodigital.gob.ar","-27.594235","-65.611698","Lunes 08:00 a 12:00 - 16:00 a 20:00 , Martes 08:00 a 12:00 - 16:00 a 20:00 , Miércoles 08:00 a 12:00 , Jueves 08:00 a 12:00 - 16:00 a 20:00 , Viernes 08:00 a 12:00 - 16:00 a 20:00 ","","Activo"
"314","Las Talitas","Calle 2 esquina 35 sd","Comedor Nuestra Sra. del Carmen","AR-T","1649","13463","TUC055","Tucumán","Tafi Viejo","Barrio los Pocitos (Las Talitas)","Las Talitas","lastalitas@puntodigital.gob.ar","-26.768197","-65.20996","","https://www.facebook.com/PDLasTalitas/","Temporalmente cerrado"
"315","Monteros","9 de Julio esquina Ernesto Padilla sd","Centro Cultural y Tecnologico Pte. Dr. Néstor Kirchner","AR-T","1643","13353","TUC071","Tucumán","Monteros","Monteros","Monteros","montero@puntodigital.gob.ar","-27.178286","-65.503752","Lunes 07:00 a 12:00 , Martes 07:00 a 12:00 - 15:00 a 20:00 , Miércoles 07:00 a 12:00 - 15:00 a 20:00 , Jueves 07:00 a 12:00 - 15:00 a 20:00 , Viernes 07:00 a 12:00 - 15:00 a 20:00 ","https://www.facebook.com/PuntoDigitalMonteros/","Activo"
"316","Monteros CIC","Ayacucho 898","CIC","AR-T","1643","13353","TUC071","Tucumán","Monteros","Monteros","Monteros","monteros2@puntodigital.gob.ar","-27.176063","-65.501812","Lunes 07:00 a 18:00 , Martes 07:00 a 18:00 , Miércoles 07:00 a 18:00 , Jueves 07:00 a 18:00 , Viernes 07:00 a 18:00 , Sábado 08:00 a 00:00 ","https://www.facebook.com/PuntoDigitalCIC/?fref=ts","Activo"
"317","Tafí Viejo","Manzana E, Barrio 17 de Marzo sd","CIC","AR-T","1649","13470","TUC101","Tucumán","Tafi Viejo","Los Pocitos","Tafí Viejo","tafiviejo@puntodigital.gob.ar","-26.7172703","-65.2239391","","","Temporalmente cerrado"
"318","Yerba Buena","Juan B. Alberti 75","Delegación Barrial de San José ","AR-T","1652","13518","TUC112","Tucumán","Yerba Buena","Cevil Redondo","Yerba Buena","yerbabuena@puntodigital.gob.ar","-26.795289","-65.259604","Lunes 08:00 a 13:00 - 14:00 a 19:00 , Martes 08:00 a 13:00 - 14:00 a 19:00 , Miércoles 08:00 a 13:00 - 14:00 a 19:00 , Jueves 08:00 a 13:00 - 14:00 a 19:00 , Viernes 08:00 a 13:00 - 14:00 a 19:00 ","","Activo"
"319","Villa Padre Monti","Ruta Prov 305, KM 50​ sd","Edificio comunal","AR-T","1651","13054","TUC072","Tucumán","Burruyacu","Villa Padre Monti","Padre Monti","vpmonti@puntodigital.gob.ar","-26.8166695","-65.3166809","Lunes 08:00 a 13:00 - 16:00 a 20:00 , Martes 08:00 a 13:00 - 16:00 a 20:00 , Miércoles 08:00 a 13:00 - 16:00 a 20:00 , Jueves 08:00 a 13:00 - 16:00 a 20:00 , Viernes 08:00 a 13:00 - 16:00 a 20:00 ","https://www.facebook.com/Villa-Padre-Monti-Punto-Digital-387847548046189/","Activo"
"320","Universidad Tucumán","Virgen de la Merced 417","Universidad Nacional de Tucumán","AR-T","1659","13378","TUC086","Tucumán","Capital","San Miguel de Tucuman","San Miguel de Tucumán","epamtucuman@puntodigital.gob.ar","-26.816694","-65.212225","Lunes 08:00 a 13:00 - 15:00 a 20:00 , Martes 08:00 a 13:00 - 15:00 a 20:00 , Miércoles 08:00 a 13:00 - 15:00 a 20:00 , Jueves 08:00 a 13:00 - 15:00 a 20:00 , Viernes 08:00 a 13:00 - 15:00 a 20:00 ","https://www.facebook.com/PUNTO-Digital-Universidad-Tucuman-452082528298609/?hc_ref=ARQ-BOXgWtFXMrg_zNViFKRsOsL51HuPfHe1S_7am9fsD6o9d3rviz1tAQs9ZVyNjQw&fref=nf","Activo"
"321","Tafí del Valle","Inca Hascar 450","Salón Municipal","AR-T","1648","13458","TUC100","Tucumán","Tafi del Valle","Tafi del Valle","Tafí del Valle","tafidelvalle@puntodigital.gob.ar","-26.8498542","-65.714215","Lunes 08:00 a 13:00 , Martes 08:00 a 13:00 , Miércoles 08:00 a 13:00 , Jueves 08:00 a 13:00 , Viernes 08:00 a 13:00 ","","Activo"
"322","Ingenio Cultural Gerardo Vallejo","Charcas 51"," ex Predio Ferial","AR-T","1659","13378","TUC086","Tucumán","Capital","San Miguel de Tucuman","San Miguel de Tucumán","ingeniocultural@puntodigital.gob.ar","-26.8340259","-65.1966722","Lunes 08:00 a 13:00 , Martes 08:00 a 13:00 , Miércoles 08:00 a 13:00 , Jueves 08:00 a 13:00 , Viernes 08:00 a 13:00 ","","Activo"
"325","Pergamino","Florida 2700","CDC 12 de octubre","AR-B","1289","1719","BUE094","Buenos Aires","Pergamino","Pergamino","Pergamino","pergamino@puntodigital.gob.ar","-33.8900858","-60.5949769","Lunes 09:00 a 16:00 , Martes 09:00 a 16:00 , Miércoles 09:00 a 16:00 , Jueves 09:00 a 16:00 , Viernes 09:00 a 16:00 ","https://www.facebook.com/Punto-Digital-Pergamino-782190845265502/?fref=ts","Activo"
"326","Neuquén","Teodoro Planas 0","Estación Terminal de Ómnibus","AR-Q","1556","8852","NEU025","Neuquén","Confluencia","Neuquen","Neuquén","neuquen@puntodigital.gob.ar","-38.958276","-68.106395","Lunes 08:00 a 15:00 , Martes 08:00 a 15:00 , Miércoles 08:00 a 15:00 , Jueves 08:00 a 15:00 , Viernes 08:00 a 15:00 ","https://www.facebook.com/modernizacionmuninqn","Activo"
"327","Bariloche","Onelli 2646","Club Comunitario (ex Comisaría 28)","AR-R","1574","9075","RNO033","Río Negro","Bariloche","San Carlos de Bariloche","San Carlos de Bariloche","bariloche@puntodigital.gob.ar","-41.156622","-71.301095","Lunes 08:00 a 16:00 , Martes 08:00 a 16:00 , Miércoles 08:00 a 16:00 , Jueves 08:00 a 16:00 , Viernes 08:00 a 16:00 ","https://www.facebook.com/PDBariloche/","Activo"
"328","Velódromo","Córdoba 2300","Parque Eva Perón","AR-B","1261","1165","BUE067","Buenos Aires","Lanus","Lanus Este","Lanús","velodromolanus@puntodigital.gob.ar","-34.714971","-58.388110","","https://www.facebook.com/PDVelodromoLanus/?hc_ref=SEARCH&fref=nf","Activo"
"329","Los Cocos","Av. Dra. Cecilia Grierson 1898","Centro Cultural Victoria Crenna de Majorel","AR-X","1396","3429","CBA222","Córdoba","Punilla","Los Cocos","Los Cocos","loscocos@puntodigital.gob.ar","-30.9267735","-64.5006144","","","Activo"
"335","Monte Leña","Eva Peron (ex Bv Paraná) 242","Salon Municipal","AR-X","1384","4262","CBA260","Córdoba","Union","Monte Leña","Monte Leña","monteleña@puntodigital.gob.ar","-32.611099","-62.593380","","","Activo"
"345","Faro del Saber","Jade 0","Faro del Saber","AR-Y","1474","7170","JUJ047","Jujuy","Doctor Manuel Belgrano","San Salvador de Jujuy","San Salvador de Jujuy","farodelsaberjujuy@puntodigital.gob.ar","-24.188553","-65.289051","Lunes 08:00 a 13:00 - 14:00 a 19:00 ","https://www.facebook.com/PUNTODIGITALFARODELSABERJUJUY/","Activo"
"346","Jesús María","Paso de los Andes 1100","Edificio La Usina","AR-X","1383","2974","CBA158","Córdoba","Colon","Jesus Maria","Jesús María","","-30.984361","-64.1097211","","","Activo"
"359","La Rioja CEPAR","Av. Ortiz de Ocampo 2447","Centro de Participación Riojano Zona Sur","AR-F","1510","7689","LRJ014","La Rioja","Capital","La Rioja","La Rioja","lariojacapital@puntodigital.gob.ar","-29.4185707","-66.8975203","","","Activo"
"362","Luján de Cuyo","Ruta 15 Km 28","CIC Agrelo","AR-M","1522","8190","MZA008","Mendoza","Lujan de Cuyo","Lujan de Cuyo","Luján de Cuyo","","-32.9858586","-68.8614212","","","Activo"
"369","Sauce de Luna","Av. Pancho Ramírez 97","CIC Dr Horacio Luis Marsicano","AR-E","1443","6011","ERI051","Entre Ríos","Federal","Sauce de Luna","Sauce de Luna","saucedeluna@puntodigital.gob.ar","-31.237609","-59.219863","","https://www.facebook.com/Punto-Digital-Sauce-De-Luna-1503896796299670/","Activo"
"371","Gualeguay","Batalla de Cepeda y Bulevar San Juan","PD Gualeguay","AR-E","1445","6052","ERI024","Entre Ríos","Gualeguay","Gualeguay","Gualeguay","","-33.14973831176758","-59.299747467041016","Lunes 08:00 a 12:00 - 15:00 a 18:00 , Martes 08:00 a 12:00 - 15:00 a 18:00 , Miércoles 08:00 a 12:00 - 15:00 a 18:00 , Jueves 08:00 a 12:00 - 15:00 a 18:00 , Viernes 08:00 a 12:00 - 15:00 a 18:00 ","","Activo"
"372","Basavilbaso","Av. Presidente Perón 396","Predio","AR-E","1436","6349","ERI005","Entre Ríos","Uruguay","Basavilbaso","Basavilbaso","basavilbaso@puntodigital.gob.ar","-32.3710888","-58.8780697","Lunes 07:00 a 13:00 - 15:00 a 19:00 , Sábado 14:00 a 19:00 , Domingo 16:00 a 21:00 ","https://www.facebook.com/PuntoDigitalBasavilbaso/","Activo"
"374","Puerto Iguazú","Calle Antartida Argentina 0","Centro Integrador Comunitario","AR-N","1544","8602","MIS059","Misiones","Iguazu","Puerto Iguazu","Puerto Iguazú","puertoiguazu@puntodigital.gob.ar","-25.6183046","-54.5854544","Lunes 08:00 a 12:00 - 14:00 a 18:00 - 14:00 a 00:00 , Martes 08:00 a 12:00 - 14:00 a 18:00 - 14:00 a 00:00 , Miércoles 08:00 a 12:00 - 14:00 a 18:00 - 14:00 a 00:00 , Jueves 16:00 a 20:00 - 16:00 a 00:00 , Viernes 16:00 a 20:00 - 16:00 a 00:00 ","","Activo"
"375","Puerto Esperanza","CALLE CHE GUEVARA Y MALVINAS 0","CENTRO INTEGRADOR COMUNITARIO ","AR-N","1544","8600","MIS032","Misiones","Iguazu","Esperanza","Esperanza","puertoesperanza@puntodigital.gob.ar","-26.0265236","-54.612606","Lunes 08:00 a 12:00 , Martes 08:00 a 12:00 , Miércoles 08:00 a 12:00 , Jueves 08:00 a 12:00 , Viernes 08:00 a 12:00 ","","Activo"
"380","Bandera","Av. Belgrano 199","Centro Integrador Comunitario","AR-G","1616","12041","SGO004","Santiago del Estero","Belgrano","Bandera","Bandera","bandera@puntodigital.gob.ar","-28.88761","-62.2684385","","","Activo"
"381","Rio Hondo","Suipacha 0","Centro Cultural General San Martín","AR-G","1626","12835","SGO078","Santiago del Estero","Rio Hondo","Termas de Rio Hondo","Termas de Río Hondo","termas@puntodigital.gob.ar","-27.498393","-64.863321","","","Activo"
"383","Nueva Esperanza","Av. José Méndez 0","Centro Cultural de Nueva Esperanza","AR-G","1631","12726","SGO057","Santiago del Estero","Pellegrini","Nueva Esperanza","Nueva Esperanza","nuevaesperanza@puntodigital.gob.ar","-26.197185","-64.244110","","","Activo"
"388","Huanguelen","Dr. H. G. Rosa 559","Centro Comercial Industrial de Producción y Servicios","AR-B","1226","605","BUE032","Buenos Aires","Coronel Suarez","Huanguelen","Coronel Suárez","huanguelen@puntodigital.gob.ar","-37.0630233","-61.9394081","","https://www.facebook.com/puntodigitalhuanguelen/","Activo"
